City ID,City,Country,Cloudiness,Date,Humidity,Lat,Lng,Max Temp,Wind Speed
0,kushmurun,KZ,98,1632243372,67,52.4503,64.6311,40.98,3.67
1,saint george,US,0,1632243323,19,37.1041,-113.5841,74.43,1.99
2,kodiak,US,0,1632243372,51,57.79,-152.4072,41.36,25.81
3,port alfred,ZA,98,1632243373,69,-33.5906,26.891,59.18,5.44
4,bluff,NZ,35,1632243373,73,-46.6,168.3333,44.8,16.02
5,joao pinheiro,BR,48,1632243374,17,-17.7425,-46.1725,98.92,3.33
6,bacsay,PH,100,1632243374,90,15.65,120.3333,75.92,4.18
7,tiksi,RU,100,1632243375,72,71.6872,128.8694,32.27,4.81
8,hobyo,SO,84,1632243375,76,5.3505,48.5268,78.13,24.11
9,sheboygan,US,88,1632243376,75,43.7333,-87.9334,63.52,8.01
10,puerto ayora,EC,83,1632243376,76,-0.7393,-90.3518,73.54,7.0
11,dodge city,US,45,1632243277,50,37.7528,-100.0171,68.23,11.99
12,beringovskiy,RU,100,1632243377,92,63.05,179.3167,38.57,9.42
13,rikitea,PF,0,1632243377,71,-23.1203,-134.9692,73.69,14.52
14,punta arenas,CL,0,1632243378,58,-53.15,-70.9167,57.31,20.71
15,ilulissat,GL,98,1632243379,85,69.2167,-51.1,27.93,1.14
16,ovalle,CL,9,1632243379,44,-30.5983,-71.2003,67.23,7.56
17,albany,US,100,1632243380,65,42.6001,-73.9662,73.31,1.01
18,busselton,AU,0,1632243380,72,-33.65,115.3333,51.08,4.47
19,vardenis,AM,9,1632243381,66,40.1827,45.7311,53.71,5.06
20,new norfolk,AU,100,1632243381,71,-42.7826,147.0587,53.1,1.99
21,auki,SB,68,1632243382,90,-8.7676,160.7034,76.15,3.2
22,jamestown,US,100,1632243291,65,42.097,-79.2353,74.3,5.99
23,broome,US,75,1632243382,63,42.2506,-75.833,74.05,3.0
24,bredasdorp,ZA,28,1632243383,51,-34.5322,20.0403,58.32,10.36
25,ankang,CN,17,1632243383,86,32.68,109.0172,69.13,0.92
26,requena,ES,81,1632243384,73,39.4883,-1.1004,64.71,17.83
27,ribeira grande,PT,20,1632243384,78,38.5167,-28.7,73.8,17.27
28,tuktoyaktuk,CA,90,1632243385,69,69.4541,-133.0374,35.6,11.5
29,middle valley,US,90,1632243385,89,35.1959,-85.1847,80.38,0.0
30,khani,GE,52,1632243386,60,41.9563,42.9566,63.97,4.81
31,eureka,US,0,1632243387,66,40.8021,-124.1637,78.21,1.01
32,hermanus,ZA,39,1632243252,70,-34.4187,19.2345,56.8,15.32
33,cherskiy,RU,86,1632243387,74,68.75,161.3,25.92,3.33
34,saskylakh,RU,100,1632243381,93,71.9167,114.0833,32.94,6.26
35,ravar,IR,11,1632243388,13,31.2656,56.8055,81.88,1.23
36,atar,MR,4,1632243388,14,20.5169,-13.0499,102.49,11.74
37,antalaha,MG,19,1632243389,78,-14.9003,50.2788,70.83,10.25
38,chengde,CN,66,1632243389,82,40.9725,117.9361,53.24,3.22
39,faya,SA,87,1632243390,43,18.3851,42.4509,71.71,8.16
40,erenhot,CN,0,1632243390,48,43.6475,111.9767,60.66,9.62
41,alofi,NU,18,1632243390,100,-19.0595,-169.9187,71.49,5.75
42,samarai,PG,99,1632243391,85,-10.6167,150.6667,78.01,13.18
43,castro,BR,6,1632243391,24,-24.7911,-50.0119,90.43,9.71
44,khandagayty,RU,66,1632243392,65,50.7333,92.05,38.66,9.06
45,piney green,US,99,1632243392,77,34.716,-77.3202,83.95,13.29
46,cabo san lucas,MX,94,1632243225,76,22.8909,-109.9124,86.61,1.99
47,atuona,PF,28,1632243379,75,-9.8,-139.0333,77.58,22.7
48,murray bridge,AU,97,1632243393,87,-35.1167,139.2667,52.57,9.46
49,atasu,KZ,12,1632243393,52,48.6814,71.6433,40.73,11.86
50,provideniya,RU,100,1632243394,88,64.3833,-173.3,32.97,11.95
51,barrow,US,90,1632243395,74,71.2906,-156.7887,32.02,23.02
52,boca do acre,BR,35,1632243395,26,-8.7522,-67.3978,104.45,2.68
53,kapaa,US,17,1632243396,99,22.0752,-159.319,72.48,13.42
54,kichera,RU,100,1632243396,84,55.9375,110.0997,41.7,4.61
55,narsaq,GL,99,1632243397,40,60.9167,-46.05,39.56,3.22
56,ponta do sol,PT,71,1632243397,67,32.6667,-17.1,77.13,2.28
57,bell ville,AR,27,1632243398,23,-32.6259,-62.6887,66.79,7.16
58,butaritari,KI,90,1632243398,69,3.0707,172.7902,82.54,15.95
59,vaini,TO,52,1632243399,70,-21.2,-175.2,72.73,17.02
60,mayo,US,95,1632243399,72,38.8876,-76.5119,82.51,7.0
61,rocky mountain house,CA,66,1632243400,54,52.3668,-114.9188,58.84,3.44
62,saint-augustin,CA,31,1632243400,49,51.226,-58.6502,71.78,18.1
63,fallon,US,0,1632243400,25,39.4735,-118.7774,66.92,1.03
64,tuatapere,NZ,61,1632243401,92,-46.1333,167.6833,44.82,3.89
65,bethel,US,40,1632243401,73,41.3712,-73.414,74.57,7.49
66,la ronge,CA,75,1632243402,66,55.1001,-105.2842,52.05,4.61
67,souillac,MU,40,1632243403,68,-20.5167,57.5167,70.36,12.66
68,saldanha,ZA,0,1632243403,73,-33.0117,17.9442,64.45,13.47
69,nanortalik,GL,97,1632243404,74,60.1432,-45.2371,37.53,18.95
70,shelburne,CA,89,1632243404,70,44.0787,-80.2041,72.66,21.0
71,qandala,SO,7,1632243404,71,11.472,49.8728,87.42,4.34
72,mataura,NZ,38,1632243405,98,-46.1927,168.8643,44.47,2.95
73,metlaltoyuca,MX,22,1632243406,74,20.7333,-97.85,87.53,3.51
74,mount isa,AU,35,1632243406,19,-20.7333,139.5,56.97,17.27
75,khatanga,RU,100,1632243407,95,71.9667,102.5,30.24,10.04
76,hasaki,JP,77,1632243407,87,35.7333,140.8333,68.4,2.64
77,lagos,NG,95,1632243236,89,6.5833,3.75,82.72,6.49
78,isangel,VU,39,1632243408,79,-19.55,169.2667,71.22,4.63
79,avarua,CK,100,1632243191,94,-21.2078,-159.775,71.65,5.75
80,upernavik,GL,12,1632243409,53,72.7868,-56.1549,23.79,5.28
81,pevek,RU,91,1632243409,91,69.7008,170.3133,25.65,6.33
82,buta,CD,100,1632243313,88,2.7858,24.73,73.47,2.73
83,san quintin,MX,0,1632243410,57,30.4833,-115.95,78.22,7.54
84,itupiranga,BR,53,1632243410,27,-5.1347,-49.3267,91.72,1.68
85,japura,ID,89,1632243411,97,-0.3167,102.35,74.66,3.11
86,hobart,AU,96,1632243135,79,-42.8794,147.3294,53.46,1.01
87,yulara,AU,70,1632243412,30,-25.2406,130.9889,53.44,8.05
88,hilo,US,76,1632243250,83,19.7297,-155.09,75.27,4.12
89,qaanaaq,GL,53,1632243412,71,77.484,-69.3632,14.11,8.55
90,high level,CA,20,1632243413,81,58.5169,-117.136,50.11,3.44
91,pisco,PE,0,1632243413,72,-13.7,-76.2167,66.25,8.05
92,east london,ZA,0,1632243414,77,-33.0153,27.9116,59.94,8.05
93,hithadhoo,MV,80,1632243414,74,-0.6,73.0833,83.7,16.15
94,longyearbyen,SJ,100,1632243414,97,78.2186,15.6401,42.44,3.62
95,taltal,CL,83,1632243415,71,-25.4,-70.4833,61.9,6.71
96,vila franca do campo,PT,31,1632243416,67,37.7167,-25.4333,73.81,9.24
97,hirara,JP,1,1632243416,74,24.8,125.2833,83.61,6.82
98,bambous virieux,MU,40,1632243417,68,-20.3428,57.7575,70.21,12.66
99,mayumba,GA,100,1632243417,84,-3.432,10.6554,76.15,7.34
100,san salvador,SV,100,1632243399,79,13.6894,-89.1872,78.46,0.51
101,the pas,CA,1,1632243418,71,53.8251,-101.2541,53.62,2.68
102,wegorzewo,PL,98,1632243418,73,54.2157,21.7372,47.7,8.41
103,katangi,IN,62,1632243419,81,23.45,79.7833,76.93,2.39
104,mehriz,IR,57,1632243419,13,31.5917,54.4318,84.7,3.0
105,araripe,BR,44,1632243420,26,-7.2125,-40.0461,91.08,3.31
106,henties bay,NA,3,1632243420,78,-22.116,14.2845,53.85,6.69
107,saint-philippe,RE,40,1632243150,73,-21.3585,55.7679,67.59,11.7
108,naze,JP,0,1632243421,76,28.3667,129.4833,75.79,4.09
109,lebu,CL,0,1632243422,60,-37.6167,-73.65,57.07,10.04
110,mahebourg,MU,40,1632243422,68,-20.4081,57.7,70.25,12.66
111,yellowknife,CA,75,1632243423,87,62.456,-114.3525,45.12,18.41
112,sarkand,KZ,5,1632243424,33,45.41,79.9186,46.65,3.2
113,arraial do cabo,BR,0,1632243424,65,-22.9661,-42.0278,82.36,14.97
114,san patricio,US,0,1632243425,48,28.017,-97.5169,93.92,5.86
115,bolitoc,PH,100,1632243425,83,15.7395,119.8769,79.54,3.96
116,codrington,AU,97,1632243163,92,-38.2667,141.9667,51.22,9.82
117,bandarbeyla,SO,99,1632243426,82,9.4942,50.8122,77.2,27.78
118,ushuaia,AR,75,1632243427,76,-54.8,-68.3,49.66,14.97
119,lalmohan,BD,100,1632243428,80,22.3384,90.7419,81.73,9.22
120,riyadh,SA,0,1632243428,12,24.6877,46.7219,93.34,9.86
121,georgetown,MY,20,1632243295,91,5.4112,100.3354,80.89,3.44
122,lahij,YE,57,1632243429,39,13.1667,44.5833,89.78,4.72
123,adrar,MR,1,1632243429,13,20.5022,-10.0711,102.34,18.19
124,mount gambier,AU,90,1632243429,93,-37.8333,140.7667,48.11,5.75
125,carbonear,CA,75,1632243430,59,47.7332,-53.2148,64.15,13.82
126,cidreira,BR,99,1632243430,71,-30.1811,-50.2056,62.22,19.39
127,severo-kurilsk,RU,65,1632243431,86,50.6789,156.125,48.54,14.81
128,talnakh,RU,19,1632243432,87,69.4865,88.3972,30.45,2.17
129,burnie,AU,100,1632243432,89,-41.0667,145.9167,50.92,9.55
130,taoudenni,ML,0,1632243433,6,22.6783,-3.9836,110.86,1.68
131,sao joao da barra,BR,0,1632243434,66,-21.6403,-41.0511,81.21,10.85
132,kaniama,CD,5,1632243434,24,-7.5667,24.1833,85.03,2.68
133,waipawa,NZ,100,1632243435,80,-41.4122,175.5153,54.45,4.65
134,salmas,IR,0,1632243436,34,38.1973,44.7653,61.79,2.57
135,patiya,BD,100,1632243436,96,22.2931,91.9762,75.58,3.78
136,coquimbo,CL,90,1632243436,67,-29.9533,-71.3436,58.73,9.22
137,goba,ET,66,1632243437,88,7.0167,39.9833,50.77,5.95
138,dikson,RU,94,1632243437,74,73.5069,80.5464,34.05,2.53
139,carnarvon,AU,0,1632243438,77,-24.8667,113.6333,64.47,8.05
140,raudeberg,NO,100,1632243438,92,61.9875,5.1352,52.2,8.99
141,thompson,CA,75,1632243326,75,55.7435,-97.8558,41.16,2.3
142,pedernales,DO,12,1632243439,65,18.0384,-71.744,86.02,7.74
143,cape town,ZA,0,1632243409,67,-33.9258,18.4232,63.01,3.0
144,suffolk,US,75,1632243326,83,40.8668,-72.7996,76.28,7.0
145,ushtobe,KZ,2,1632243440,28,45.2514,77.9838,51.8,8.34
146,mar del plata,AR,0,1632243441,55,-38.0023,-57.5575,54.9,8.57
147,piranshahr,IR,0,1632243441,39,36.701,45.1413,64.85,1.25
148,luderitz,NA,4,1632243383,50,-26.6481,15.1594,66.45,10.0
149,muros,ES,1,1632243442,59,42.7762,-9.0603,76.15,16.58
150,balabac,PH,100,1632243442,95,7.9868,117.0645,76.12,24.07
151,vadso,NO,40,1632243443,61,70.0744,29.7487,42.96,17.27
152,beira,MZ,40,1632243444,73,-19.8436,34.8389,75.29,14.97
153,kaitangata,NZ,14,1632243424,91,-46.2817,169.8464,39.09,7.16
154,kavaratti,IN,12,1632243444,79,10.5669,72.642,81.88,15.14
155,nelson bay,AU,81,1632243445,91,-32.7167,152.15,51.96,1.01
156,sao luis de montes belos,BR,14,1632243446,10,-16.525,-50.3722,104.0,3.0
157,waverly,US,100,1632243446,91,42.7392,-84.6208,75.47,9.78
158,torbay,CA,75,1632243447,52,47.6666,-52.7314,63.28,19.57
159,tiznit,MA,15,1632243447,69,29.5833,-9.5,69.13,9.95
160,te anau,NZ,60,1632243448,93,-45.4167,167.7167,37.89,1.99
161,lorengau,PG,99,1632243448,78,-2.0226,147.2712,80.65,4.99
162,port blair,IN,99,1632243449,80,11.6667,92.75,80.06,14.27
163,pundaguitan,PH,100,1632243450,77,6.3711,126.1689,80.73,2.15
164,comodoro rivadavia,AR,0,1632243388,28,-45.8667,-67.5,67.86,9.22
165,haines junction,CA,100,1632243450,93,60.7522,-137.5108,37.35,3.44
166,savinskiy,RU,56,1632243451,90,62.9342,40.1361,36.05,5.03
167,geraldton,AU,0,1632243451,62,-28.7667,114.6,52.21,10.36
168,vuktyl,RU,100,1632243452,91,63.8567,57.3094,39.0,6.64
169,udachnyy,RU,100,1632243452,65,66.4167,112.4,40.06,6.58
170,atmakur,IN,98,1632243453,87,15.8833,78.5833,75.7,2.3
171,linkoping,SE,75,1632243454,79,58.4109,15.6216,51.78,3.44
172,guerrero negro,MX,5,1632243228,48,27.9769,-114.0611,81.27,3.89
173,metro,ID,38,1632243455,87,-5.1131,105.3067,75.42,4.03
174,katsuura,JP,97,1632243455,89,35.1333,140.3,73.51,2.93
175,beloha,MG,23,1632243456,69,-25.1667,45.05,68.94,6.4
176,klaksvik,FO,100,1632243456,92,62.2266,-6.589,54.52,40.29
177,atikokan,CA,100,1632243457,73,48.7555,-91.6216,53.01,9.06
178,mengyin,CN,3,1632243457,80,35.7069,117.9264,66.58,1.14
179,sitka,US,90,1632243402,82,57.0531,-135.33,55.29,11.5
180,lagoa,PT,18,1632243458,75,39.05,-27.9833,70.56,17.31
181,chokurdakh,RU,100,1632243459,63,70.6333,147.9167,29.98,8.61
182,dharmavaram,IN,100,1632243459,68,14.4333,77.7167,80.17,13.0
183,ust-nera,RU,32,1632243460,76,64.5667,143.2,31.42,3.38
184,kharp,RU,99,1632243460,93,66.8014,65.8081,39.09,1.81
185,mecca,SA,95,1632243460,26,21.4267,39.8261,97.68,4.56
186,najran,SA,51,1632243461,30,17.4924,44.1277,86.65,13.53
187,karasjok,NO,88,1632243461,64,69.4719,25.5112,42.91,20.42
188,gudari,IN,97,1632243462,93,19.35,83.7833,77.07,0.22
189,noumea,NC,9,1632243463,76,-22.2763,166.4572,66.18,5.66
190,kidal,ML,8,1632243463,5,18.4411,1.4078,103.82,8.23
191,snasa,NO,100,1632243464,93,64.2457,12.3778,47.64,3.47
192,kassala,SD,3,1632243464,31,15.451,36.4,94.69,7.9
193,labuhan,ID,100,1632243413,79,-6.8844,112.2051,79.74,6.58
194,mlonggo,ID,100,1632243465,80,-6.5333,110.7,78.08,5.61
195,xapuri,BR,14,1632243465,23,-10.6517,-68.5044,93.85,4.38
196,victoria,HK,56,1632243230,82,22.2855,114.1577,86.32,6.67
197,nikolskoye,RU,100,1632243466,85,59.7035,30.7861,45.01,5.88
198,hervey bay,AU,0,1632243466,47,-25.2986,152.8535,54.03,14.29
199,dicabisagan,PH,22,1632243468,88,17.0818,122.4157,79.45,2.64
200,laguna,US,1,1632243469,42,38.421,-121.4238,88.3,0.0
201,krasnoselkup,RU,96,1632243469,88,65.7,82.4667,29.53,12.8
202,eyl,SO,99,1632243469,78,7.9803,49.8164,78.08,21.27
203,solnechnyy,RU,94,1632243470,94,50.7214,136.6319,46.08,5.41
204,nioro,GM,97,1632243470,63,13.35,-15.75,90.48,5.55
205,rockport,US,40,1632243471,68,28.0206,-97.0544,93.45,1.99
206,kroya,ID,100,1632243446,87,-7.6331,109.2461,76.21,1.48
207,fortuna,US,1,1632243432,51,40.5982,-124.1573,77.94,8.99
208,teahupoo,PF,18,1632243472,75,-17.8333,-149.2667,67.96,10.27
209,axim,GH,34,1632243472,81,4.8699,-2.2405,79.29,9.4
210,aykhal,RU,100,1632243473,66,66.0,111.5,39.16,4.54
211,kaeo,NZ,100,1632243473,90,-35.1,173.7833,59.32,11.9
212,brae,GB,100,1632243474,87,60.3964,-1.353,57.11,28.21
213,natal,BR,40,1632243378,58,-5.795,-35.2094,88.02,14.97
214,gravdal,NO,75,1632243474,76,68.1214,13.5031,51.48,18.41
215,gilgit,PK,80,1632243475,60,35.9221,74.3087,74.08,0.94
216,ugoofaaru,MV,70,1632243475,76,5.6667,73.0,83.01,16.93
217,goderich,CA,75,1632243367,73,43.7501,-81.7165,73.9,18.41
218,camacha,PT,20,1632243476,57,33.0833,-16.3333,72.82,17.27
219,lompoc,US,20,1632243455,72,34.6391,-120.4579,81.93,3.0
220,batagay-alyta,RU,100,1632243477,89,67.8006,130.4114,30.78,2.75
221,bengkulu,ID,97,1632243477,90,-3.8004,102.2655,75.7,4.29
222,ashqelon,IL,0,1632243478,66,31.6693,34.5715,83.41,9.75
223,gobabis,NA,0,1632243479,13,-22.45,18.9667,76.66,11.18
224,aasiaat,GL,72,1632243479,90,68.7098,-52.8699,27.86,4.63
225,kieta,PG,100,1632243480,85,-6.2167,155.6333,77.65,3.8
226,diamantino,BR,34,1632243480,9,-14.4086,-56.4461,108.41,3.74
227,nemuro,JP,55,1632243481,94,43.3236,145.575,60.71,17.47
228,thinadhoo,MV,5,1632243481,75,0.5333,72.9333,83.93,15.59
229,tucuma,BR,30,1632243482,53,-0.1833,-50.05,89.91,9.57
230,traverse city,US,99,1632243482,64,44.7631,-85.6206,65.14,12.62
231,verkhoyansk,RU,100,1632243483,80,67.5447,133.385,33.94,2.28
232,barmer,IN,31,1632243483,63,25.75,71.3833,86.38,18.25
233,along,IN,17,1632243484,98,28.1667,94.7667,71.6,2.08
234,pacifica,US,1,1632243484,51,37.6138,-122.4869,85.69,1.01
235,port hardy,CA,75,1632243462,88,50.6996,-127.4199,55.58,6.91
236,brandon,US,40,1632243485,75,27.9378,-82.2859,91.08,1.01
237,ketchikan,US,100,1632243486,98,55.3422,-131.6461,52.52,6.31
238,excelsior springs,US,1,1632243486,45,39.3392,-94.2261,69.71,18.41
239,fairbanks,US,90,1632243426,74,64.8378,-147.7164,32.59,1.01
240,tahta,EG,0,1632243487,14,26.7693,31.5021,102.52,13.82
241,kapuskasing,CA,90,1632243422,83,49.4169,-82.4331,68.0,13.8
242,jiazi,CN,95,1632243488,81,22.8779,116.067,82.33,1.7
243,faanui,PF,5,1632243407,72,-16.4833,-151.75,78.19,8.95
244,charters towers,AU,8,1632243488,18,-20.1,146.2667,55.33,20.0
245,fort nelson,CA,20,1632243268,81,58.8053,-122.7002,42.39,0.0
246,mangrol,IN,100,1632243489,84,21.1167,70.1167,81.46,16.75
247,tete,MZ,0,1632243489,24,-16.1564,33.5867,91.49,12.66
248,ulladulla,AU,57,1632243489,60,-35.35,150.4667,47.88,5.93
249,grand-santi,GF,88,1632243490,41,4.25,-54.3833,93.49,2.1
250,payakumbuh,ID,100,1632243490,97,-0.2202,100.6308,70.21,3.06
251,margate,GB,46,1632243491,68,51.3813,1.3862,69.85,8.21
252,ternate,ID,100,1632243481,82,0.8,127.4,79.81,6.87
253,maumere,ID,96,1632243491,71,-8.6199,122.2111,78.49,2.62
254,carlagan,PH,100,1632243492,84,14.975,122.0456,80.33,5.73
255,baisha,CN,0,1632243492,70,26.5222,110.9311,74.34,1.86
256,opuwo,NA,20,1632243493,14,-18.0607,13.84,87.64,11.25
257,sakakah,SA,0,1632243493,17,29.9697,40.2064,94.57,5.99
258,kimbe,PG,100,1632243494,91,-5.5502,150.1429,74.62,4.34
259,garden city,US,90,1632243494,90,42.3256,-83.331,73.33,11.5
260,graaff-reinet,ZA,94,1632243493,42,-32.2522,24.5308,56.91,7.72
261,bad hofgastein,AT,53,1632243495,91,47.1667,13.1,54.14,3.06
262,iquique,CL,92,1632243209,69,-20.2208,-70.1431,62.64,8.66
263,chuy,UY,2,1632243496,65,-33.6971,-53.4616,58.14,15.55
264,saint-pierre,RE,0,1632243496,63,-21.3393,55.4781,67.68,8.05
265,kuminskiy,RU,92,1632243497,81,58.6667,66.5667,37.96,4.85
266,mina,MX,4,1632243497,42,26.0011,-100.5299,93.25,7.16
267,san cristobal,VE,96,1632243498,56,7.7669,-72.225,73.58,7.0
268,kuytun,RU,100,1632243498,96,54.3419,101.5036,37.65,11.3
269,fergus falls,US,1,1632243499,63,46.283,-96.0776,58.46,11.01
270,boulder,US,1,1632243433,46,40.0833,-105.3505,56.01,1.01
271,los llanos de aridane,ES,75,1632243499,81,28.6585,-17.9182,73.15,13.8
272,rocha,UY,1,1632243500,65,-34.4833,-54.3333,56.91,15.21
273,belmonte,BR,30,1632243494,66,-15.8631,-38.8828,81.72,13.06
274,goundam,ML,53,1632243259,13,16.4145,-3.6708,104.81,5.61
275,mozarlandia,BR,31,1632243501,9,-14.7447,-50.5706,107.58,3.04
276,ola,RU,100,1632243501,75,59.5833,151.2833,42.96,11.97
277,tombouctou,ML,0,1632243502,8,20.0,-3.0,107.11,4.97
278,lasa,IT,6,1632243432,74,46.6166,10.7002,65.14,1.59
279,saku,JP,48,1632243262,87,36.2167,138.4833,64.49,3.02
280,kommunar,RU,100,1632243502,86,59.6206,30.39,44.65,7.61
281,gao,ML,43,1632243503,14,16.6362,1.637,103.33,4.61
282,iqaluit,CA,90,1632243388,80,63.7506,-68.5145,35.33,12.66
283,port elizabeth,ZA,0,1632243476,77,-33.918,25.5701,59.29,8.05
284,esperance,AU,0,1632243504,40,-33.8667,121.9,53.44,16.42
285,manzanillo,CU,6,1632243409,51,20.3433,-77.1167,91.99,4.94
286,port pirie,AU,34,1632243505,90,-33.1833,138.0167,51.89,5.46
287,kortkeros,RU,64,1632243505,83,61.8106,51.5806,37.4,3.18
288,paralimni,CY,0,1632243506,89,35.0375,33.9833,82.89,5.99
289,smithers,CA,75,1632243506,87,54.7804,-127.1743,50.32,6.91
290,jadu,LY,22,1632243506,38,31.953,12.0261,83.01,13.13
291,vrangel,RU,86,1632243507,93,42.7297,133.0839,64.17,10.13
292,barcelos,PT,0,1632243507,35,41.5388,-8.6151,78.85,3.11
293,tasiilaq,GL,100,1632243508,55,65.6145,-37.6368,30.36,6.11
294,piacabucu,BR,49,1632243508,63,-10.4056,-36.4344,81.48,11.16
295,ust-koksa,RU,96,1632243509,79,50.2696,85.6108,31.46,3.22
296,huicheng,CN,77,1632243509,87,23.0385,116.2899,82.35,1.05
297,ifanadiana,MG,99,1632243510,95,-21.3,47.6333,64.67,2.91
298,isla mujeres,MX,46,1632243462,69,21.2311,-86.731,85.39,8.68
299,komsomolskiy,UZ,0,1632243419,32,40.4272,71.7189,70.52,0.0
300,muroto,JP,29,1632243511,87,33.2833,134.15,77.56,4.65
301,san lawrenz,MT,100,1632243512,86,36.0553,14.204,78.85,5.01
302,constantine,DZ,50,1632243512,45,36.365,6.6147,80.58,9.37
303,mana,GF,27,1632243513,64,5.6592,-53.7767,86.61,9.75
304,kirakira,SB,26,1632243513,89,-10.4544,161.9205,77.56,5.53
305,olafsvik,IS,100,1632243514,86,64.8945,-23.7142,41.09,37.45
306,viedma,AR,0,1632243514,17,-40.8135,-62.9967,71.69,10.83
307,moyo,UG,50,1632243515,95,3.6609,31.7247,67.19,3.69
308,mikhaylovka,RU,89,1632243221,84,50.06,43.2379,55.27,5.86
309,tura,IN,100,1632243516,82,25.5198,90.2201,73.02,3.0
310,yucca valley,US,0,1632243516,16,34.1142,-116.4322,85.89,3.0
311,acapulco,MX,37,1632243317,72,16.8634,-99.8901,84.07,4.12
312,aripuana,BR,77,1632243483,24,-9.1667,-60.6333,103.44,3.33
313,turochak,RU,92,1632243517,87,52.2576,87.1224,33.57,4.09
314,karachi,PK,75,1632243517,74,24.9056,67.0822,84.02,13.8
315,mozhga,RU,99,1632243518,68,56.4447,52.2276,40.84,5.66
316,port keats,AU,98,1632243518,26,-14.25,129.55,82.96,14.81
317,hat yai,TH,75,1632243519,100,7.0084,100.4767,77.18,3.44
318,erzin,TR,0,1632243519,76,36.9559,36.2,81.12,4.45
319,palmer,US,40,1632243300,61,42.1584,-72.3287,73.62,3.0
320,sibolga,ID,22,1632243520,87,1.7427,98.7792,75.96,3.27
321,northam,GB,97,1632243520,82,51.0333,-4.2167,67.12,4.68
322,luchow,DE,100,1632243521,74,52.9667,11.15,59.59,12.88
323,maku,IR,3,1632243521,35,39.2911,44.4521,67.48,2.01
324,ryotsu,JP,1,1632243463,71,38.0833,138.4333,71.51,7.81
325,rocky mount,US,100,1632243324,55,35.9382,-77.7905,83.98,13.98
326,longjiang,CN,100,1632243522,82,47.3303,123.1836,53.62,20.24
327,senneterre,CA,100,1632243522,78,48.3835,-77.2328,71.82,15.99
328,okhotsk,RU,92,1632243399,61,59.3833,143.3,45.75,7.94
329,berlevag,NO,0,1632243523,56,70.8578,29.0864,42.75,33.38
330,abalak,RU,100,1632243524,75,58.1286,68.5944,38.8,5.88
331,kruisfontein,ZA,76,1632243525,84,-34.0033,24.7314,53.89,2.71
332,pangnirtung,CA,75,1632243525,45,66.1451,-65.7125,39.2,13.8
333,tallahassee,US,7,1632243490,76,30.4383,-84.2807,90.68,1.01
334,kangaatsiaq,GL,34,1632243526,77,68.3065,-53.4641,32.83,10.56
335,emerald,AU,2,1632243526,24,-23.5333,148.1667,51.94,5.75
336,bonthe,SL,78,1632243527,73,7.5264,-12.505,82.53,8.25
337,teguise,ES,40,1632243527,53,29.0605,-13.564,75.42,14.97
338,nanakuli,US,99,1632243528,76,21.3906,-158.1547,77.11,14.14
339,melfort,CA,86,1632243528,54,52.8667,-104.6177,55.53,6.91
340,dangriga,BZ,98,1632243529,72,16.9692,-88.2321,87.98,4.72
341,portoviejo,EC,98,1632243529,52,-1.05,-80.45,80.01,4.94
342,houma,US,7,1632243530,69,29.5958,-90.7195,91.99,0.49
343,sinnamary,GF,29,1632243446,62,5.3833,-52.95,86.86,10.54
344,ewa beach,US,100,1632243530,78,21.3156,-158.0072,77.09,16.69
345,wabag,PG,100,1632243531,98,-5.4781,143.7021,55.63,1.41
346,frankfort,ZA,0,1632243531,18,-27.2667,28.4833,64.62,8.05
347,fethiye,TR,50,1632243532,51,36.6217,29.1164,84.07,4.7
348,sakaiminato,JP,75,1632243437,78,35.55,133.2333,76.98,11.5
349,tazovskiy,RU,100,1632243533,76,67.4667,78.7,34.05,14.23
350,gat,IL,0,1632243533,100,31.61,34.7642,82.4,8.79
351,porto velho,BR,40,1632243534,46,-8.7619,-63.9039,95.05,3.44
352,kandiari,PK,10,1632243534,39,26.9156,68.5216,93.61,3.85
353,banfora,BF,53,1632243535,65,10.6333,-4.7667,86.99,1.74
354,sunel,IN,31,1632243535,93,24.3667,75.9667,75.54,7.47
355,anapskaya,RU,75,1632243536,77,44.89,37.38,59.23,8.95
356,raton,US,100,1632243496,57,36.9034,-104.4391,50.34,2.91
357,camacupa,AO,36,1632243536,14,-12.0167,17.4833,83.21,4.79
358,road town,VG,43,1632243389,77,18.4167,-64.6167,88.0,18.45
359,tucuman,AR,90,1632243537,77,-26.8241,-65.2226,60.8,0.0
360,petropavlovsk-kamchatskiy,RU,0,1632243538,75,53.0452,158.6483,41.59,6.71
361,corinto,GR,67,1632243538,59,37.9407,22.9573,82.89,5.77
362,mumford,GH,25,1632243538,85,5.2618,-0.759,78.22,14.16
363,puerto baquerizo moreno,EC,40,1632243539,73,-0.9,-89.6,74.39,16.11
364,shimoda,JP,81,1632243396,83,34.6667,138.95,74.21,7.25
365,sal rei,CV,33,1632243539,77,16.1833,-22.9167,80.26,14.94
366,port augusta,AU,6,1632243540,88,-32.5,137.7667,51.94,5.35
367,coffs harbour,AU,50,1632243540,57,-30.3,153.1333,57.13,24.16
368,flinders,AU,34,1632243541,72,-34.5833,150.8552,49.8,9.75
369,asau,RO,57,1632243541,66,46.4333,26.4,51.96,2.42
370,surgut,RU,40,1632243542,100,61.25,73.4167,37.58,6.71
371,zenzeli,RU,100,1632243542,52,45.9241,47.0474,70.32,13.31
372,itarema,BR,40,1632243543,54,-2.9248,-39.9167,87.46,18.23
373,dumai,ID,100,1632243543,94,1.6833,101.45,76.14,2.55
374,tiarei,PF,3,1632243544,75,-17.5333,-149.3333,73.42,9.1
375,paamiut,GL,100,1632243545,55,61.994,-49.6678,34.29,6.38
376,alice springs,AU,15,1632243312,43,-23.7,133.8833,49.55,9.22
377,luwuk,ID,100,1632243545,88,-0.9516,122.7875,73.31,4.36
378,lapy,PL,100,1632243546,73,52.9911,22.8842,47.48,8.28
379,srednekolymsk,RU,69,1632243547,65,67.45,153.6833,27.66,4.81
380,namatanai,PG,100,1632243547,84,-3.6667,152.4333,77.9,2.98
381,eydhafushi,MV,36,1632243547,75,5.1033,73.0708,83.41,16.51
382,lavrentiya,RU,93,1632243548,67,65.5833,-171.0,31.17,7.14
383,majene,ID,100,1632243532,88,-3.5403,118.9707,76.32,3.67
384,suba,PH,95,1632243548,74,10.8438,121.0102,83.12,12.53
385,lipany,SK,55,1632243549,73,49.1538,20.9638,57.07,4.27
386,pemangkat,ID,92,1632243549,83,1.1667,108.9667,79.27,1.36
387,chernyshevskiy,RU,100,1632243550,91,63.0128,112.4714,42.3,9.13
388,enid,US,43,1632243551,32,36.3956,-97.8784,73.31,7.0
389,price,US,3,1632243551,25,39.5994,-110.8107,58.12,4.03
390,salalah,OM,79,1632243552,84,17.0151,54.0924,79.3,5.17
391,portland,US,1,1632242877,62,45.5234,-122.6762,70.09,1.01
392,kontagora,NG,91,1632243552,84,10.3999,5.4695,78.75,5.14
393,athabasca,CA,98,1632243498,35,54.7169,-113.2854,52.63,16.2
394,gravatai,BR,75,1632243255,59,-29.9444,-50.9919,67.46,13.8
395,koppang,NO,100,1632243554,83,61.5706,11.0555,45.79,3.85
396,voznesenye,RU,100,1632243554,63,61.0106,35.4781,46.13,12.03
397,sao borja,BR,100,1632243555,54,-28.6606,-56.0044,63.95,12.8
398,le port,RE,12,1632243555,71,-20.9373,55.2919,68.0,5.19
399,sedona,US,1,1632243556,22,34.8697,-111.761,81.07,1.99
400,rawson,AR,0,1632243557,22,-43.3002,-65.1023,70.79,17.18
401,ancud,CL,0,1632243557,60,-41.8697,-73.8203,56.73,3.2
402,birao,CF,57,1632243558,83,10.2849,22.7882,77.11,1.81
403,saint stephen,GB,0,1632243558,77,50.3333,-4.9,66.15,8.05
404,hamilton,US,90,1632243559,94,39.1834,-84.5333,72.37,1.99
405,fare,PF,0,1632243559,70,-16.7,-151.0167,78.12,7.47
406,ringkobing,DK,100,1632243560,75,56.0901,8.244,58.91,19.17
407,cankuzo,BI,51,1632243561,33,-3.1333,30.5833,74.08,2.62
408,miri,MY,20,1632243561,94,4.4148,114.0089,77.14,3.44
409,mercedes,AR,0,1632243562,41,-34.6515,-59.4307,63.86,10.8
410,grindavik,IS,75,1632243562,81,63.8424,-22.4338,43.27,29.93
411,macapa,BR,53,1632243563,56,0.0389,-51.0664,89.82,11.12
412,vanderhoof,CA,91,1632243408,67,54.0166,-124.0198,54.77,4.92
413,belyy yar,RU,0,1632243564,70,53.6039,91.3903,40.89,13.42
414,caravelas,BR,4,1632243564,62,-17.7125,-39.2481,82.49,12.73
415,hami,CN,18,1632243492,24,42.8,93.45,71.02,4.32
416,kuching,MY,20,1632243565,94,1.55,110.3333,73.62,1.14
417,maniwaki,CA,97,1632243290,72,46.3834,-75.966,66.74,10.36
418,arman,RU,100,1632243566,80,59.7,150.1667,41.34,11.79
419,ozinki,RU,91,1632243566,41,51.1786,49.6769,59.22,19.35
420,george,ZA,20,1632243567,76,-33.963,22.4617,54.95,9.22
421,bismarck,US,1,1632243567,52,46.8083,-100.7837,65.88,5.75
422,juneau,US,90,1632243568,99,58.3019,-134.4197,53.6,8.99
423,buala,SB,75,1632243503,84,-8.145,159.5921,79.02,5.57
424,bilma,NE,3,1632243569,9,18.6853,12.9164,95.61,5.53
425,sitrah,BH,0,1632243569,48,26.1547,50.6206,91.62,5.01
426,aksarka,RU,100,1632243569,88,66.5606,67.7975,37.63,10.07
427,aklavik,CA,100,1632243570,97,68.2191,-135.0107,36.32,14.23
428,azul,AR,0,1632243570,45,-36.777,-59.8585,60.01,8.08
429,tinde,TZ,20,1632243571,25,-3.8833,33.2,84.79,1.95
430,gorontalo,ID,100,1632243571,98,0.5412,123.0595,74.68,1.63
431,rockingham,US,6,1632243571,71,42.9668,-71.0995,73.17,1.01
432,sobolevo,RU,100,1632243572,98,54.4299,31.8996,41.32,10.4
433,weihai,CN,0,1632243573,77,37.5017,122.1136,67.86,7.49
434,loiza,PR,38,1632243573,86,18.4313,-65.8802,89.06,2.28
435,ishurdi,BD,100,1632243573,95,24.1333,89.0833,75.11,6.82
436,kirkwall,GB,20,1632243574,76,58.9848,-2.9587,64.74,20.71
437,wanlaweyn,SO,70,1632243575,65,2.6185,44.8938,78.19,17.74
438,odweyne,SO,19,1632243575,36,9.4092,45.064,84.51,12.08
439,krasnogorsk,RU,90,1632243276,93,55.8225,37.3181,44.65,13.42
440,muisne,EC,94,1632243576,82,0.6,-80.0333,84.31,10.33
441,pingliang,CN,53,1632243577,63,35.5392,106.6861,64.53,3.91
442,tessalit,ML,0,1632243577,5,20.1986,1.0114,104.45,6.17
443,hofn,IS,100,1632243520,82,64.2539,-15.2082,46.81,55.12
444,manavgat,TR,13,1632243578,74,36.7867,31.4431,81.01,3.31
445,konevo,RU,95,1632243578,89,62.1215,39.3192,36.99,4.9
446,ariquemes,BR,31,1632243579,29,-9.9133,-63.0408,100.94,2.71
447,loa janan,ID,94,1632243579,99,-0.583,117.095,72.12,2.44
448,sao raimundo nonato,BR,38,1632243580,16,-9.0153,-42.6994,98.83,5.91
449,sovetskiy,RU,100,1632243580,78,61.3614,63.5842,42.03,5.14
450,vardo,NO,9,1632243581,65,70.3705,31.1107,43.0,24.9
451,leiyang,CN,0,1632243561,56,26.4024,112.8591,75.67,3.04
452,antsohihy,MG,22,1632243582,59,-14.8796,47.9875,77.02,5.7
453,omsukchan,RU,100,1632243583,98,62.5333,155.8,33.71,7.63
454,touros,BR,45,1632243584,57,-5.1989,-35.4608,84.97,14.72
455,azoyu,MX,39,1632243584,64,16.7167,-98.7333,85.62,3.15
456,batemans bay,AU,63,1632243585,64,-35.7167,150.1833,51.19,5.21
457,nongan,CN,100,1632243585,94,44.382,125.1685,61.21,10.09
458,talcahuano,CL,75,1632243586,82,-36.7167,-73.1167,55.08,19.57
459,orchard homes,US,90,1632243333,87,46.8633,-114.0484,41.14,3.44
460,roebourne,AU,90,1632243480,24,-20.7833,117.1333,82.96,19.13
461,turukhansk,RU,100,1632243587,85,65.8167,87.9833,38.25,8.32
462,kodinsk,RU,40,1632243588,97,58.6881,99.1844,32.13,3.76
463,norman wells,CA,90,1632243475,81,65.282,-126.8329,42.84,12.66
464,general pico,AR,0,1632243588,27,-35.6566,-63.7568,63.55,12.37
465,longonjo,AO,95,1632243589,26,-12.9067,15.2533,82.22,2.37
466,puerto carreno,CO,100,1632243589,90,6.189,-67.4859,76.73,6.42
467,abu zabad,SD,90,1632243590,78,12.35,29.25,77.16,16.46
468,vestmannaeyjar,IS,98,1632243590,81,63.4427,-20.2734,46.35,42.79
469,praia,CV,32,1632243590,73,14.9215,-23.5087,82.2,13.98
470,puri,IN,100,1632243591,81,19.8,85.85,81.12,9.53
471,gornopravdinsk,RU,100,1632243591,98,60.05,69.9,38.28,7.78
472,san carlos,VE,100,1632243592,86,9.6612,-68.5827,79.86,4.23
473,kananga,CD,50,1632243592,29,-5.8958,22.4178,85.71,1.66
474,ondjiva,AO,20,1632243593,12,-17.0667,15.7333,96.84,6.91
475,mantua,IT,44,1632243593,68,45.1667,10.7833,74.44,4.16
476,meulaboh,ID,100,1632243594,86,4.1363,96.1285,76.77,3.2
477,sayyan,YE,96,1632243594,38,15.1718,44.3244,68.74,15.23
478,bystrzyca klodzka,PL,98,1632243595,67,50.3018,16.6423,55.26,3.06
479,matara,LK,9,1632243595,89,5.9485,80.5353,77.99,8.03
480,sao geraldo do araguaia,BR,50,1632243596,20,-6.4006,-48.555,103.91,5.12
481,oktyabrskiy,RU,99,1632243596,66,54.4815,53.471,48.51,4.29
482,demba,CD,52,1632243597,30,-5.51,22.2667,85.19,2.89
483,constitucion,CL,0,1632243597,64,-35.3333,-72.4167,59.29,9.86
484,ayan,RU,19,1632243598,65,56.45,138.1667,42.55,10.8
485,chala,TZ,95,1632243598,35,-7.5833,31.2667,75.69,2.28
486,vanavara,RU,73,1632243599,87,60.34,102.2797,36.09,4.7
487,alta floresta,BR,48,1632243544,11,-9.8756,-56.0861,106.57,4.47
488,matagami,CA,90,1632243599,83,49.7502,-77.6328,69.91,14.97
489,champerico,GT,98,1632243600,75,14.3,-91.9167,92.77,4.81
490,touho,NC,66,1632243600,74,-20.7833,165.2333,69.31,5.44
491,hay river,CA,100,1632243601,91,60.8156,-115.7999,45.95,9.64
492,zomin,UZ,0,1632243442,24,39.9606,68.3958,65.88,5.32
493,chipinge,ZW,0,1632243603,33,-20.1883,32.6236,70.32,10.25
494,sambava,MG,41,1632243606,72,-14.2667,50.1667,73.9,14.9
495,andra,RU,100,1632243608,94,62.5147,65.8878,39.88,8.25
496,baghdad,IQ,0,1632243317,15,33.3406,44.4009,91.31,12.39
497,dayong,CN,66,1632243611,89,25.0209,118.2898,77.67,2.1
498,marrakesh,MA,0,1632243515,30,31.6315,-8.0083,87.87,5.75
499,linhares,BR,2,1632243613,29,-19.3911,-40.0722,97.9,6.33
500,cayenne,GF,20,1632243614,76,4.9333,-52.3333,91.44,7.0
501,birjand,IR,0,1632243615,22,32.8663,59.2211,70.38,7.83
502,lukoyanov,RU,100,1632243616,70,55.0277,44.4786,45.27,14.03
503,krasnozavodsk,RU,100,1632243617,95,56.45,38.2167,40.06,10.22
504,toowoomba,AU,0,1632243618,71,-27.55,151.9667,38.25,5.91
505,half moon bay,US,1,1632243619,49,37.4636,-122.4286,85.87,5.75
506,russell,US,40,1632243620,77,32.3502,-85.1999,85.28,0.0
507,svetlyy,RU,100,1632243620,68,54.675,20.1347,51.85,10.42
508,nalut,LY,0,1632243444,11,30.3333,10.85,92.34,9.4
509,cururupu,BR,36,1632243622,52,-1.8283,-44.8683,88.11,8.55
510,gondanglegi,ID,100,1632243622,87,-7.7479,112.0132,74.59,4.0
511,inhambane,MZ,75,1632243414,64,-23.865,35.3833,73.38,16.11
512,pervomayskoye,RU,74,1632243623,78,43.919,46.7102,64.33,6.4
513,bozoum,CF,50,1632243624,90,6.3193,16.3799,72.52,2.21
514,sloboda,RU,93,1632243625,87,51.1421,40.3021,50.9,4.56
515,chicama,PE,39,1632243625,60,-7.8447,-79.1469,73.42,11.54
516,morondava,MG,84,1632243626,80,-20.2833,44.2833,76.71,14.74
517,madimba,TZ,24,1632243627,79,-10.4,40.3333,75.34,11.48
518,ixtapa,MX,23,1632243628,78,20.7,-105.2,84.22,4.0
519,kedrovyy,RU,100,1632243629,95,56.1667,91.8167,30.61,9.35
520,mad,HU,27,1632243630,48,48.2,21.2833,59.72,2.55
521,port lincoln,AU,89,1632243630,85,-34.7333,135.8667,51.44,6.42
522,boende,CD,67,1632243632,71,-0.2167,20.8667,78.96,4.94
523,san rafael del sur,NI,39,1632243632,61,11.8485,-86.4384,86.65,10.16
524,chaupimarca,PE,40,1632243633,43,-10.4333,-76.5333,51.44,12.06
525,ambulu,ID,100,1632243634,90,-8.345,113.6058,74.64,2.71
526,minna,NG,97,1632243635,94,9.6139,6.5569,75.04,1.25
527,ogbomosho,NG,99,1632243636,90,8.133,4.25,75.72,6.49
528,yeppoon,AU,0,1632243636,37,-23.1333,150.7333,56.98,18.37
529,ust-uda,RU,48,1632243637,73,54.1742,103.0304,38.91,3.18
530,yerbogachen,RU,100,1632243638,86,61.2767,108.0108,37.81,6.6
531,bilara,IN,99,1632243639,81,26.1792,73.7056,80.64,5.99
532,ponta delgada,PT,75,1632243555,73,37.7333,-25.6667,74.12,12.66
533,zhigansk,RU,100,1632243639,86,66.7697,123.3711,36.16,9.66
534,homer,US,2,1632243375,42,59.6425,-151.5483,40.8,23.0
535,bambanglipuro,ID,100,1632243640,90,-7.95,110.2833,75.07,3.74
536,clyde river,CA,90,1632243641,80,70.4692,-68.5914,32.23,8.05
537,praia da vitoria,PT,17,1632243642,75,38.7333,-27.0667,75.76,10.6
538,kiruna,SE,75,1632243643,70,67.8557,20.2251,38.32,16.11
539,boulder city,US,1,1632243644,10,35.9786,-114.8325,81.77,13.8
540,sola,VU,59,1632243644,79,-13.8833,167.55,78.42,15.37
541,conceicao da barra,BR,4,1632243645,52,-18.5933,-39.7322,87.53,12.3
542,ossora,RU,100,1632243646,90,59.2353,163.0719,48.78,15.97
543,sukumo,JP,70,1632243647,96,32.9333,132.7333,74.66,3.58
544,deputatskiy,RU,100,1632243394,74,69.3,139.9,26.73,3.62
545,bronnoysund,NO,75,1632243648,82,65.4625,12.1997,51.91,17.27
546,bud,US,95,1632243649,86,39.447,-86.1758,76.05,9.1
547,wanaka,NZ,63,1632243513,88,-44.7,169.15,32.54,4.43
