City ID,City,Cloudiness,Date,Humidity,Lat,Lng,Max Temp,Wind Speed
0,gisborne,100,1631832892,90,-38.6533,178.0042,49.95,22.26
1,shediac,20,1631832892,68,46.2198,-64.5411,65.03,6.91
2,petropavlovsk-kamchatskiy,0,1631832637,66,53.0452,158.6483,50.59,6.71
3,husum,92,1631832893,86,54.4858,9.0524,58.89,10.51
4,aklavik,20,1631832893,71,68.2191,-135.0107,59.83,6.91
5,virginia beach,75,1631832759,87,36.8529,-75.978,80.65,8.05
6,jamestown,75,1631832894,74,42.097,-79.2353,73.02,3.0
7,guarapari,50,1631832895,90,-20.6667,-40.4975,75.09,1.25
8,punta arenas,90,1631832895,93,-53.15,-70.9167,37.51,6.91
9,ucluelet,100,1631832869,73,48.9329,-125.5528,66.04,7.56
10,port elizabeth,35,1631832896,77,-33.918,25.5701,52.11,14.23
11,henties bay,18,1631832896,89,-22.116,14.2845,51.85,3.89
12,dingle,100,1631832897,94,10.9995,122.6711,75.63,4.12
13,poum,27,1631832833,57,-20.2333,164.0167,70.39,17.63
14,hasaki,100,1631832897,66,35.7333,140.8333,70.2,7.56
15,haines junction,100,1631832898,61,60.7522,-137.5108,48.15,2.3
16,boa vista,20,1631832899,46,2.8197,-60.6733,91.38,6.91
17,mataura,23,1631832899,55,-46.1927,168.8643,44.47,6.24
18,ancud,100,1631832609,92,-41.8697,-73.8203,51.42,11.48
19,bredasdorp,6,1631832900,82,-34.5322,20.0403,52.92,4.61
20,rikitea,53,1631832900,73,-23.1203,-134.9692,73.9,14.92
21,castro,100,1631832901,96,-24.7911,-50.0119,54.7,8.46
22,hilo,90,1631832270,80,19.7297,-155.09,85.28,0.0
23,yamada,100,1631832901,73,39.4667,141.95,65.53,7.87
24,vaini,20,1631832902,83,-21.2,-175.2,80.76,8.05
25,lebu,0,1631832902,90,-37.6167,-73.65,50.13,8.25
26,spasskoye,100,1631832903,89,44.6108,132.7969,61.25,1.72
27,kabare,96,1631832904,94,-2.4683,28.8242,62.65,1.68
28,souillac,75,1631832771,94,-20.5167,57.5167,70.36,3.44
29,adre,72,1631832905,34,13.4667,22.2,79.21,7.05
30,thunder bay,40,1631832841,69,48.4001,-89.3168,71.58,8.05
31,khatanga,100,1631832905,87,71.9667,102.5,31.84,1.92
32,saint-georges,20,1631832865,74,12.0564,-61.7485,83.88,17.27
33,hithadhoo,99,1631832626,72,-0.6,73.0833,83.3,10.63
34,jaragua,47,1631832906,18,-15.7569,-49.3344,88.02,4.18
35,busselton,71,1631832906,73,-33.65,115.3333,50.49,6.6
36,butaritari,34,1631832907,76,3.0707,172.7902,82.36,14.14
37,avarua,75,1631832642,74,-21.2078,-159.775,80.65,18.41
38,qaanaaq,99,1631832907,79,77.484,-69.3632,19.94,5.32
39,ascension,1,1631832908,58,30.2169,-90.9001,89.6,9.22
40,jiazi,9,1631832909,78,22.8779,116.067,81.34,5.01
41,brae,86,1631832909,92,60.3964,-1.353,55.31,14.43
42,talnakh,29,1631832910,89,69.4865,88.3972,33.53,2.17
43,port augusta,83,1631832910,26,-32.5,137.7667,74.71,10.02
44,panji,94,1631832911,78,-7.7253,114.0995,76.39,4.18
45,pisco,0,1631832912,68,-13.7,-76.2167,66.25,5.75
46,port alfred,34,1631832912,74,-33.5906,26.891,54.82,15.19
47,rabak,48,1631832913,64,13.1809,32.74,82.2,2.95
48,beloha,0,1631832913,85,-25.1667,45.05,65.35,4.92
49,xinqing,54,1631832914,96,48.2333,129.5,52.75,5.84
50,geraldton,40,1631832914,93,-28.7667,114.6,50.41,0.0
51,poso,100,1631832915,91,-1.3959,120.7524,74.59,3.09
52,saint-philippe,49,1631832915,83,-21.3585,55.7679,71.15,6.31
53,la asuncion,1,1631832915,82,11.0333,-63.8628,80.92,18.05
54,cape town,0,1631832916,71,-33.9258,18.4232,55.89,4.0
55,autazes,64,1631832849,65,-3.5797,-59.1306,79.18,0.85
56,ushuaia,75,1631832867,56,-54.8,-68.3,38.86,5.75
57,burnie,98,1631832917,80,-41.0667,145.9167,52.92,10.29
58,paoua,100,1631832918,97,7.2427,16.4406,69.33,3.87
59,bluff,79,1631832918,53,-46.6,168.3333,44.8,12.33
60,umm lajj,7,1631832744,71,25.0213,37.2685,81.23,5.86
61,tabou,81,1631832919,87,4.423,-7.3528,77.25,8.05
62,cherskiy,91,1631832919,61,68.75,161.3,37.42,17.31
63,hofn,100,1631832920,98,64.2539,-15.2082,51.75,15.08
64,kapaa,4,1631832827,59,22.0752,-159.319,83.12,1.99
65,port hardy,90,1631832680,67,50.6996,-127.4199,55.58,9.22
66,mar del plata,0,1631832921,52,-38.0023,-57.5575,64.42,4.61
67,esperance,98,1631832921,77,-33.8667,121.9,44.44,19.13
68,atuona,15,1631832922,80,-9.8,-139.0333,77.14,15.86
69,cabinda,52,1631832922,90,-5.55,12.2,74.53,5.26
70,seoul,75,1631832705,77,37.5683,126.9778,70.99,5.75
71,aquiraz,11,1631832666,86,-3.9014,-38.3911,80.69,12.01
72,puerto ayora,54,1631832923,96,-0.7393,-90.3518,67.55,5.01
73,thompson,75,1631832924,58,55.7435,-97.8558,55.56,12.66
74,nipawin,75,1631832779,66,53.3668,-104.0009,50.04,19.57
75,cockburn town,18,1631832924,80,21.4612,-71.1419,82.98,16.24
76,albany,28,1631832762,83,42.6001,-73.9662,72.81,1.14
77,teluknaga,20,1631832925,89,-6.0989,106.6381,78.98,3.44
78,vila franca do campo,61,1631832695,88,37.7167,-25.4333,70.21,3.4
79,sturgeon bay,1,1631832925,60,44.8342,-87.377,74.21,18.41
80,saint george,1,1631832926,12,37.1041,-113.5841,99.07,1.01
81,kattivakkam,100,1631832926,74,13.2167,80.3167,84.29,6.38
82,hermanus,21,1631832927,76,-34.4187,19.2345,50.81,7.38
83,dickinson,97,1631832927,82,29.4608,-95.0513,84.18,3.0
84,airai,77,1631832927,38,-8.9266,125.4092,66.56,3.2
85,fort nelson,40,1631832928,33,58.8053,-122.7002,58.59,6.91
86,kharsawan,100,1631832929,93,22.8,85.8333,74.8,4.16
87,tuatapere,15,1631832929,63,-46.1333,167.6833,44.82,7.02
88,atambua,100,1631832764,66,-9.1061,124.8925,76.64,3.18
89,yumen,3,1631832777,34,40.2833,97.2,63.21,2.1
90,kaitangata,99,1631832930,56,-46.2817,169.8464,45.12,6.78
91,klaksvik,100,1631832930,96,62.2266,-6.589,54.52,31.12
92,hobart,20,1631832931,79,-42.8794,147.3294,52.27,1.99
93,bathurst,0,1631832777,69,-33.4166,149.5806,55.85,1.01
94,gat,0,1631832782,71,31.61,34.7642,73.08,1.16
95,scarborough,46,1631832742,88,54.2797,-0.4044,58.64,3.94
96,taoudenni,99,1631832932,23,22.6783,-3.9836,96.46,12.5
97,sri aman,90,1631832932,94,1.2376,111.4621,73.45,0.0
98,tessalit,58,1631832933,21,20.1986,1.0114,93.02,7.49
99,victor harbor,29,1631832933,43,-35.5667,138.6167,70.47,3.0
100,barrow,90,1631832934,87,71.2906,-156.7887,35.62,8.05
101,buala,57,1631832716,68,-8.145,159.5921,84.24,7.67
102,bilibino,98,1631832934,81,68.0546,166.4372,30.33,6.02
103,portland,20,1631832602,29,45.5234,-122.6762,79.92,4.0
104,dikson,100,1631832935,76,73.5069,80.5464,34.92,16.6
105,menongue,2,1631832768,20,-14.6585,17.691,64.29,2.39
106,nemuro,100,1631832936,68,43.3236,145.575,56.59,13.31
107,bubaque,96,1631832772,81,11.2833,-15.8333,79.88,8.01
108,lompoc,1,1631832936,75,34.6391,-120.4579,77.14,14.97
109,nikolskoye,23,1631832934,94,59.7035,30.7861,40.01,1.63
110,vila velha,90,1631832937,88,-20.3297,-40.2925,75.15,5.75
111,san isidro,90,1631832937,87,-12.1167,-77.05,60.39,1.01
112,longyearbyen,75,1631832938,81,78.2186,15.6401,42.64,2.3
113,kannur,97,1631832939,90,11.8675,75.3576,75.9,3.0
114,yellowknife,20,1631832939,46,62.456,-114.3525,48.72,8.05
115,verkhoyansk,100,1631832939,64,67.5447,133.385,51.01,4.38
116,tank,0,1631832940,38,32.2217,70.3793,90.68,4.88
117,buin,0,1631832940,55,-33.7333,-70.75,73.72,2.42
118,nanortalik,100,1631832941,86,60.1432,-45.2371,38.79,5.93
119,nhulunbuy,40,1631832941,69,-12.2333,136.7667,81.21,11.5
120,goya,0,1631832942,52,-29.14,-59.2626,60.93,7.43
121,maniitsoq,100,1631832942,58,65.4167,-52.9,37.63,5.64
122,shitkino,98,1631832943,89,56.3703,98.3543,42.66,7.47
123,mahebourg,75,1631832908,94,-20.4081,57.7,70.25,3.44
124,lazaro cardenas,60,1631832944,78,17.9583,-102.2,82.8,4.9
125,cidreira,98,1631832736,66,-30.1811,-50.2056,59.99,14.85
126,tamale,67,1631832944,88,9.4008,-0.8393,75.11,4.88
127,cabo san lucas,43,1631832945,77,22.8909,-109.9124,89.19,9.75
128,sakakah,0,1631832713,23,29.9697,40.2064,83.77,7.05
129,lukovetskiy,85,1631832946,94,64.2956,41.9211,39.18,3.98
130,tongchuan,100,1631832946,97,35.0806,109.0897,63.36,1.81
131,matara,99,1631832947,90,5.9485,80.5353,77.95,7.58
132,college,90,1631832947,52,64.8569,-147.8028,54.59,0.0
133,dzaoudzi,0,1631832948,88,-12.7887,45.2699,73.29,4.61
134,hinton,92,1631832948,27,53.4001,-117.5857,51.84,9.15
135,kruisfontein,6,1631832949,80,-34.0033,24.7314,49.89,11.05
136,yulara,90,1631832949,77,-25.2406,130.9889,66.04,9.22
137,ape,100,1631832950,73,57.5393,26.6929,43.72,7.11
138,new norfolk,32,1631832950,67,-42.7826,147.0587,51.93,1.01
139,lhokseumawe,100,1631832951,87,5.1801,97.1507,77.54,3.29
140,bethel,75,1631832951,84,41.3712,-73.414,73.31,1.99
141,upernavik,100,1631832952,57,72.7868,-56.1549,26.33,4.92
142,chuy,0,1631832670,81,-33.6971,-53.4616,53.82,6.58
143,coihaique,75,1631832952,76,-45.5752,-72.0662,48.15,3.44
144,berlevag,98,1631832953,81,70.8578,29.0864,41.2,12.37
145,saskylakh,100,1631832953,97,71.9167,114.0833,33.69,18.68
146,sao joao da barra,56,1631832954,90,-21.6403,-41.0511,72.84,15.01
147,sudak,4,1631832954,46,44.85,34.9667,62.08,6.76
148,ribeira grande,95,1631832955,84,38.5167,-28.7,72.3,4.72
149,ulaangom,98,1631832955,38,49.9811,92.0667,53.04,3.56
150,chernyshevskiy,30,1631832956,87,63.0128,112.4714,34.9,3.51
151,arraial do cabo,75,1631832956,94,-22.9661,-42.0278,71.56,9.22
152,buenaventura,91,1631832957,92,3.8801,-77.0312,77.0,2.82
153,san quintin,0,1631832957,66,30.4833,-115.95,72.3,17.16
154,sarankhola,100,1631832958,90,22.3082,89.7897,78.24,3.87
155,faanui,4,1631832958,70,-16.4833,-151.75,79.05,21.56
156,georgetown,40,1631832959,86,5.4112,100.3354,80.53,4.61
157,mocajuba,46,1631832959,89,-2.5842,-49.5072,76.23,3.13
158,grindavik,75,1631832960,87,63.8424,-22.4338,46.87,9.22
159,bira,8,1631832960,91,49.0,132.4667,53.58,2.44
160,klamath falls,0,1631832960,19,42.2249,-121.7817,78.87,5.01
161,adrar,95,1631832961,18,20.5022,-10.0711,96.62,3.22
162,mehamn,100,1631832734,77,71.0357,27.8492,40.75,10.02
163,aksay,3,1631832868,38,47.26,39.87,57.29,5.01
164,lugazi,71,1631832962,95,0.3772,32.9197,61.43,2.13
165,parry sound,2,1631832962,40,45.3501,-80.033,71.65,1.3
166,bembereke,85,1631832962,95,10.2283,2.6634,72.43,1.97
167,genhe,15,1631832781,91,50.7833,121.5167,45.88,4.61
168,tazmalt,58,1631832963,46,36.3868,4.3989,79.21,0.56
169,takoradi,53,1631832705,94,4.8845,-1.7554,75.67,7.72
170,marzuq,76,1631832964,18,14.4,46.4667,78.96,2.59
171,martapura,75,1631832964,100,-3.4167,114.85,75.29,2.3
172,taltal,21,1631832964,75,-25.4,-70.4833,59.38,4.61
173,morristown,20,1631832965,65,36.214,-83.2949,81.7,6.91
174,cururupu,8,1631832965,92,-1.8283,-44.8683,75.56,3.8
175,chara,100,1631832966,78,56.9064,118.2631,35.49,4.05
176,kindu,100,1631832967,96,-2.95,25.95,71.31,1.36
177,beringovskiy,90,1631832967,62,63.05,179.3167,40.6,18.14
178,alta floresta,71,1631832967,60,-9.8756,-56.0861,79.34,4.63
179,kodiak,90,1631832968,94,57.79,-152.4072,53.11,0.0
180,mogadishu,67,1631832778,87,2.0371,45.3438,77.32,14.85
181,chokurdakh,99,1631832968,82,70.6333,147.9167,40.05,3.89
182,rensvik,90,1631832969,94,63.1,7.8167,53.87,2.3
183,grand gaube,11,1631832969,88,-20.0064,57.6608,70.38,1.99
184,batagay-alyta,100,1631832970,93,67.8006,130.4114,38.7,7.29
185,east london,76,1631832791,64,-33.0153,27.9116,57.81,16.51
186,nome,90,1631832764,61,64.5011,-165.4064,47.16,3.44
187,ganta,85,1631832971,99,7.3022,-8.5308,69.48,2.42
188,andenes,75,1631832971,81,69.3143,16.1194,45.46,6.91
189,san patricio,98,1631832972,44,28.017,-97.5169,92.12,4.7
190,provideniya,75,1631832972,65,64.3833,-173.3,41.11,6.71
191,espanola,60,1631832973,13,35.9911,-106.0806,89.71,11.88
192,kroonstad,0,1631832973,50,-27.6504,27.2349,47.35,8.84
193,mahenge,21,1631832974,83,-8.6833,36.7167,62.65,3.78
194,emerald,0,1631832974,72,-23.5333,148.1667,66.34,10.36
195,severo-kurilsk,4,1631832975,70,50.6789,156.125,53.29,6.96
196,morrope,23,1631832975,76,-6.5417,-80.0111,66.31,16.42
197,betare oya,94,1631832976,98,5.6,14.0833,65.8,0.54
198,touros,1,1631832976,82,-5.1989,-35.4608,77.9,18.21
199,jawhar,62,1631832977,85,2.7809,45.5005,76.12,12.1
200,katsuura,100,1631832977,74,35.1333,140.3,69.91,7.31
201,iqaluit,40,1631832978,87,63.7506,-68.5145,37.13,4.61
202,constitucion,0,1631832979,85,-35.3333,-72.4167,52.43,14.58
203,kununurra,22,1631832979,74,-15.7667,128.7333,80.58,3.44
204,norman wells,20,1631832979,54,65.282,-126.8329,57.24,12.66
205,chimbote,13,1631832876,80,-9.0853,-78.5783,63.18,10.0
206,faya,51,1631832980,52,18.3851,42.4509,63.12,2.98
207,margate,92,1631832944,86,51.3813,1.3862,60.69,1.01
208,lerwick,94,1631832981,91,60.1545,-1.1494,55.4,16.33
209,rawson,99,1631832981,42,-43.3002,-65.1023,60.6,14.47
210,copiapo,0,1631832982,48,-27.3667,-70.3333,53.29,3.49
211,san cristobal,83,1631832982,98,7.7669,-72.225,78.98,3.89
212,taraz,0,1631832983,38,42.9,71.3667,57.61,8.95
213,dunedin,95,1631832983,61,-45.8742,170.5036,48.79,4.0
214,sinnamary,25,1631832984,80,5.3833,-52.95,80.83,9.42
215,southbridge,64,1631832984,93,42.0751,-72.0334,71.22,7.45
216,anadyr,75,1631832984,75,64.75,177.4833,39.7,22.37
217,tres arroyos,0,1631832985,69,-38.3739,-60.2798,55.44,9.6
218,karratha,42,1631832737,36,-20.7377,116.8463,68.41,9.04
219,libiaz,99,1631832974,93,50.104,19.3157,63.81,5.01
220,clyde river,75,1631832956,74,70.4692,-68.5914,32.23,11.5
221,codrington,94,1631832740,62,-38.2667,141.9667,57.47,20.15
222,yongzhou,10,1631832986,86,26.4559,111.5988,76.53,0.74
223,ponta do sol,17,1631832987,70,32.6667,-17.1,73.0,7.11
224,tasiilaq,7,1631832987,68,65.6145,-37.6368,22.87,5.19
225,nioro,96,1631832824,95,13.35,-15.75,74.05,4.63
226,sambava,44,1631832858,88,-14.2667,50.1667,69.58,6.76
227,lagoa,48,1631832988,90,39.05,-27.9833,70.92,8.37
228,sangolqui,67,1631832989,66,-0.3341,-78.4522,68.49,7.34
229,eureka,2,1631832710,67,40.8021,-124.1637,79.66,4.0
230,bambanglipuro,11,1631832989,90,-7.95,110.2833,75.42,6.11
231,yauya,77,1631832990,54,-8.9833,-77.3,55.22,7.0
232,vodnyy,100,1631832990,94,63.5046,53.4095,38.66,6.89
233,kutum,80,1631832991,29,14.2,24.6667,80.85,5.99
234,dekar,3,1631832991,19,-21.5333,21.9333,61.83,13.51
235,mananjary,9,1631832992,89,-21.2167,48.3333,68.32,9.28
236,harrismith,83,1631832992,88,-28.2728,29.1295,45.63,10.71
237,bambous virieux,75,1631832993,94,-20.3428,57.7575,70.21,3.44
238,vermillion,0,1631832993,25,42.7794,-96.9292,92.07,18.14
239,liverpool,20,1631832981,82,53.4106,-2.9779,59.61,1.01
240,pilar,14,1631832993,93,-9.5972,-35.9567,76.93,5.68
241,carnarvon,32,1631832994,66,-24.8667,113.6333,51.87,6.91
242,umm kaddadah,50,1631832994,49,13.6017,26.6876,83.48,13.31
243,athens,5,1631832712,57,37.9795,23.7162,76.37,1.99
244,kirakira,27,1631832995,72,-10.4544,161.9205,83.53,11.01
245,suriapet,97,1631832996,72,17.15,79.6167,79.16,6.8
246,mantua,82,1631832996,88,45.1667,10.7833,69.35,1.99
247,westport,61,1631832996,88,41.1415,-73.3579,74.62,8.99
248,san policarpo,100,1631832997,83,12.1791,125.5072,80.08,1.28
249,mahon,0,1631832997,83,39.8885,4.2658,73.96,0.0
250,olinda,40,1631832998,73,-8.0089,-34.8553,76.73,16.11
251,novikovo,26,1631832998,57,51.1537,37.8879,46.04,0.85
252,nsanje,17,1631832998,62,-16.92,35.262,76.78,4.56
253,shu,0,1631832999,29,43.5983,73.7614,62.91,7.61
254,narsaq,100,1631832999,74,60.9167,-46.05,37.83,2.98
255,montgomery,90,1631832998,94,39.1501,-77.1997,75.61,0.0
256,chimbarongo,0,1631833000,78,-34.7,-71.05,71.98,3.38
257,udachnyy,37,1631832932,83,66.4167,112.4,35.38,13.91
258,hualmay,15,1631832800,79,-11.0964,-77.6139,63.07,12.06
259,pathein,100,1631833001,97,16.7833,94.7333,75.42,3.8
260,sept-iles,20,1631833001,84,50.2001,-66.3821,57.72,8.99
261,puerto escondido,100,1631833002,80,15.85,-97.0667,82.36,4.09
262,tiksi,100,1631833002,93,71.6872,128.8694,39.52,8.08
263,bolshaya glushitsa,0,1631833003,73,50.2406,43.5908,44.6,2.33
264,erenhot,0,1631833004,46,43.6475,111.9767,59.79,7.47
265,bengkulu,17,1631833004,87,-3.8004,102.2655,74.55,3.85
266,rio gallegos,75,1631832767,93,-51.6226,-69.2181,41.05,5.75
267,autun,85,1631833005,88,46.95,4.3,63.3,2.48
268,talara,45,1631833005,87,-4.5772,-81.2719,64.26,18.37
269,severo-yeniseyskiy,100,1631833005,85,60.3725,93.0408,39.15,7.63
270,clarence town,0,1631833006,58,-32.5833,151.7833,63.34,3.62
271,houma,70,1631833007,84,29.5958,-90.7195,89.6,10.87
272,labuhan,78,1631833007,85,-6.8844,112.2051,77.67,6.53
273,pevek,100,1631833008,78,69.7008,170.3133,31.26,18.16
274,mareeba,24,1631833008,73,-17.0,145.4333,73.49,7.54
275,maracacume,8,1631833008,89,-2.0428,-45.9592,76.05,5.32
276,coquimbo,75,1631832743,82,-29.9533,-71.3436,55.13,9.22
277,bom jesus,3,1631833009,21,-9.0744,-44.3586,83.57,5.77
278,vanimo,82,1631832942,79,-2.6741,141.3028,79.2,6.26
279,salalah,100,1631833010,87,17.0151,54.0924,79.34,0.92
280,matagami,1,1631833010,45,49.7502,-77.6328,68.11,12.66
281,roma,1,1631832757,61,43.2128,-75.4557,73.54,6.91
282,komsomolskiy,0,1631833010,37,40.4272,71.7189,67.42,9.22
283,matamoros,45,1631833011,30,25.5333,-103.25,92.1,13.6
284,caravelas,0,1631832981,83,-17.7125,-39.2481,72.77,5.97
285,victoria,53,1631832940,84,22.2855,114.1577,84.33,3.78
286,hornepayne,81,1631833012,56,49.2138,-84.7705,63.55,17.22
287,shimoda,99,1631833012,83,34.6667,138.95,71.6,11.3
288,farmington,1,1631832747,15,36.7281,-108.2187,88.48,6.91
289,nouadhibou,1,1631833013,73,20.931,-17.0347,75.18,19.57
290,puerto lempira,40,1631833014,74,15.2667,-83.7667,86.14,0.0
291,killybegs,97,1631832789,88,54.6333,-8.45,60.37,15.97
292,sioux lookout,75,1631833015,94,50.1001,-91.917,57.58,6.91
293,mount isa,2,1631833015,22,-20.7333,139.5,78.57,6.91
294,saint-joseph,23,1631833017,79,-21.3667,55.6167,70.16,3.04
295,srednekolymsk,67,1631833017,59,67.45,153.6833,48.49,6.58
296,lisala,100,1631833017,99,2.15,21.5167,66.88,2.37
297,hami,99,1631833018,19,42.8,93.45,73.29,6.55
298,husavik,100,1631833018,85,66.0449,-17.3389,49.91,11.79
299,port hawkesbury,1,1631833018,87,45.6169,-61.3485,60.19,4.61
300,riverton,1,1631832991,22,40.5219,-111.9391,90.01,7.0
301,tuktoyaktuk,40,1631833019,71,69.4541,-133.0374,53.6,6.91
302,toowoomba,0,1631833020,74,-27.55,151.9667,58.24,7.36
303,lipari,91,1631833020,67,38.4674,14.954,82.56,4.83
304,saldanha,0,1631833020,72,-33.0117,17.9442,51.85,19.24
305,kysyl-syr,100,1631833021,67,63.8986,122.7617,42.6,9.06
306,iwanai,100,1631833022,70,42.9744,140.5089,62.8,6.87
307,matsuura,100,1631833023,87,33.3271,129.721,77.67,17.45
308,cascais,0,1631833023,76,38.6979,-9.4215,68.47,4.0
309,bandarbeyla,83,1631833024,84,9.4942,50.8122,77.94,27.6
310,springfield,0,1631832832,50,37.2153,-93.2982,86.54,5.01
311,odesskoye,100,1631833008,78,54.2111,72.9651,52.45,6.69
312,saint anthony,1,1631833025,47,45.0205,-93.218,88.3,10.0
313,shizunai,100,1631833025,69,42.3339,142.3669,61.34,13.33
314,saint-francois,90,1631833026,94,46.4154,3.9054,63.84,4.61
315,ridgecrest,0,1631833026,8,35.6225,-117.6709,99.01,7.0
316,makakilo city,90,1631833027,66,21.3469,-158.0858,83.95,6.91
317,de aar,0,1631832853,71,-30.6497,24.0123,44.31,13.44
318,antsohihy,22,1631833027,88,-14.8796,47.9875,70.29,2.33
319,yuzhno-kurilsk,100,1631833028,67,44.0306,145.8556,56.89,13.42
320,ostrovnoy,86,1631833029,89,68.0531,39.5131,42.17,11.3
321,mahajanga,20,1631833029,88,-15.7167,46.3167,71.62,2.3
322,kavieng,60,1631833030,71,-2.5744,150.7967,82.13,6.08
323,slave lake,75,1631833030,58,55.2834,-114.769,51.78,10.36
324,deputatskiy,100,1631833030,76,69.3,139.9,41.47,1.23
325,harker heights,75,1631833031,42,31.0835,-97.6597,92.44,10.36
326,sehithwa,6,1631833031,14,-20.4667,22.7167,70.65,12.06
327,samarai,92,1631832759,74,-10.6167,150.6667,77.49,18.92
328,castanos,55,1631833032,33,26.7833,-101.4167,90.03,7.2
329,le port,26,1631833032,76,-20.9373,55.2919,71.56,1.59
330,pampa,40,1631833033,35,35.5362,-100.9599,90.57,16.11
331,agirish,100,1631833033,94,61.9247,63.0231,38.86,16.02
332,torbay,75,1631833034,93,47.6666,-52.7314,64.67,21.85
333,cairns,32,1631833034,65,-16.9167,145.7667,78.12,10.36
334,batagay,100,1631833035,61,67.6333,134.6333,50.29,2.44
335,luanda,75,1631833035,83,-8.8368,13.2343,73.4,8.05
336,lahuachaca,52,1631833036,67,-17.3667,-67.6667,49.46,11.88
337,laguna,1,1631833036,42,38.421,-121.4238,93.22,5.01
338,zhigansk,100,1631833037,69,66.7697,123.3711,40.77,9.37
339,omboue,100,1631833037,83,-1.5746,9.2618,76.73,6.58
340,santa maria da vitoria,0,1631833038,20,-13.3947,-44.1886,84.29,8.03
341,caloundra,19,1631833038,65,-26.8,153.1333,70.36,8.61
342,tisau,77,1631833039,59,45.1667,26.5167,70.2,3.53
343,price,39,1631833040,11,39.5994,-110.8107,83.71,14.61
344,luderitz,15,1631833040,41,-26.6481,15.1594,61.7,15.77
345,hobyo,44,1631833040,88,5.3505,48.5268,77.31,23.53
346,marfino,0,1631833041,93,55.7028,37.3822,44.51,6.71
347,chabahar,3,1631833041,75,25.2919,60.643,81.59,2.98
348,kieta,95,1631833042,67,-6.2167,155.6333,83.77,4.94
349,alberton,36,1631833042,75,46.8168,-64.0654,64.31,6.93
350,merauke,72,1631833043,65,-8.4667,140.3333,78.94,17.94
351,puerto colombia,36,1631833043,80,10.9878,-74.9547,84.29,9.57
352,ashcroft,48,1631833043,27,50.7165,-121.2859,67.48,8.99
353,kosonsoy,0,1631833044,23,41.2561,71.5508,63.16,8.48
354,waddan,0,1631833044,37,29.1614,16.139,75.61,10.63
355,candido mendes,4,1631833045,88,-1.4467,-45.7167,76.69,4.05
356,olafsvik,84,1631833045,87,64.8945,-23.7142,44.73,20.18
357,chifeng,0,1631832778,64,42.2683,118.9636,55.87,4.32
358,porbandar,100,1631833046,89,21.6422,69.6093,80.26,12.97
359,port hedland,1,1631833047,88,-20.3167,118.5667,60.85,6.91
360,mount gambier,40,1631833047,58,-37.8333,140.7667,55.31,19.57
361,maryville,73,1631832885,89,35.7565,-83.9705,79.05,1.01
362,gigmoto,100,1631833048,85,13.7796,124.39,80.04,3.56
363,la quinta,0,1631832798,8,33.6634,-116.31,106.72,1.01
364,bowen,7,1631833048,60,-20.0167,148.2333,66.42,11.27
365,khromtau,19,1631833049,58,50.2503,58.4347,46.38,4.5
366,fort myers beach,39,1631832830,91,26.452,-81.9481,81.01,9.6
367,sur,72,1631833050,51,22.5667,59.5289,86.86,3.29
368,yankton,1,1631832803,38,42.8711,-97.3973,93.45,24.16
369,gazojak,0,1631833051,18,41.1875,61.4036,77.72,8.32
370,emmett,2,1631833051,8,43.8735,-116.4993,74.62,9.82
371,cache creek,48,1631833052,27,50.8101,-121.3246,65.91,8.99
372,vostok,100,1631833052,97,46.4856,135.8833,49.96,3.8
373,ust-tsilma,99,1631833052,83,65.441,52.1498,37.62,8.32
374,koungou,0,1631833053,88,-12.7336,45.2042,73.11,4.61
375,kloulklubed,100,1631833053,83,7.0419,134.2556,75.7,11.41
376,guaruja,100,1631833053,87,-23.9931,-46.2564,71.2,14.58
377,horizontina,100,1631833054,81,-27.6258,-54.3078,61.34,7.72
378,okhotsk,100,1631833054,86,59.3833,143.3,53.56,26.93
379,sao filipe,100,1631833055,82,14.8961,-24.4956,79.63,7.83
380,shingu,99,1631833055,89,33.7333,135.9833,77.92,5.57
381,giulianova,99,1631833055,66,42.7612,13.9537,69.85,6.33
382,xining,94,1631833056,83,36.6167,101.7667,52.34,2.26
383,bonthe,81,1631833056,89,7.5264,-12.505,76.14,6.38
384,bacolod,100,1631833057,91,10.6667,122.95,77.04,4.09
385,qui nhon,86,1631833057,87,13.7667,109.2333,78.4,2.75
386,hovd,82,1631833058,41,48.0056,91.6419,54.79,6.93
387,villamontes,60,1631833058,39,-21.25,-63.5,66.78,0.89
388,helmsdale,100,1631833059,92,58.1168,-3.6517,60.94,4.29
389,kayerkan,52,1631833059,88,69.3497,87.7602,34.77,4.23
390,iberia,26,1631833060,85,29.9502,-91.7507,85.05,10.16
391,fairbanks,90,1631833060,53,64.8378,-147.7164,56.1,0.0
392,tanggu,48,1631833061,65,39.0211,117.6469,64.36,8.08
393,meru,90,1631833061,81,0.0463,37.6559,61.09,3.0
394,chunskiy,93,1631833062,94,56.0815,99.6342,38.77,4.88
395,aasiaat,5,1631833062,73,68.7098,-52.8699,22.69,5.66
396,kholm,63,1631833063,97,59.2667,32.85,35.56,3.27
397,kabansk,98,1631833063,88,52.0486,106.6528,37.89,1.72
398,naze,89,1631833063,80,28.3667,129.4833,79.72,13.56
399,maridi,96,1631833064,97,4.9158,29.4742,67.87,4.54
400,la ronge,90,1631833064,87,55.1001,-105.2842,44.85,9.22
401,calbuco,100,1631833065,91,-41.768,-73.1273,52.81,6.89
402,rundu,10,1631833065,18,-17.9333,19.7667,68.77,5.17
403,alofi,75,1631833066,74,-19.0595,-169.9187,82.29,12.66
404,aswan,0,1631833066,29,24.0934,32.907,81.7,12.66
405,michigan city,1,1631833056,42,41.7075,-86.895,83.01,3.44
406,sorland,100,1631833067,68,67.667,12.6934,52.68,5.44
407,elko,1,1631833068,14,41.0002,-115.5012,83.73,7.0
408,beyneu,72,1631833068,28,45.3167,55.2,71.64,16.06
409,revelstoke,75,1631833069,36,50.9832,-118.2023,60.82,4.61
410,ostersund,90,1631833069,87,63.1792,14.6357,43.25,13.8
411,yar-sale,96,1631833070,89,66.8333,70.8333,38.62,12.15
412,el carrizo,78,1631833070,77,24.0261,-106.8814,84.02,5.26
413,westonaria,1,1631833071,26,-26.3191,27.6486,54.5,9.31
414,albanel,7,1631833071,63,48.8832,-72.4487,68.14,9.22
415,shache,0,1631833072,25,38.4167,77.2406,68.99,2.35
416,wagar,80,1631833072,32,16.1525,36.2032,88.84,1.86
417,winslow,0,1631833072,19,35.0242,-110.6974,87.96,5.01
418,richards bay,100,1631832957,88,-28.783,32.0377,61.99,11.99
419,batken,0,1631833073,34,39.8333,71.0,53.2,1.54
420,novovasylivka,2,1631833074,39,46.8315,35.7536,57.34,6.64
421,hamilton,14,1631832960,70,39.1834,-84.5333,81.59,1.01
422,constantine,75,1631833075,53,36.365,6.6147,80.01,4.61
423,oktyabrskoye,86,1631833075,58,43.0645,44.7417,57.34,8.95
424,santa isabel do rio negro,49,1631833076,74,-0.4139,-65.0192,77.77,2.59
425,show low,20,1631833076,23,34.2542,-110.0298,85.71,12.66
426,vetlanda,100,1631832854,98,57.4289,15.0776,55.27,13.18
427,makat,32,1631833077,58,47.6469,53.3463,53.33,16.91
428,port lincoln,6,1631833077,62,-34.7333,135.8667,62.24,17.72
429,mecca,97,1631833078,46,21.4267,39.8261,83.35,3.06
430,bathsheba,20,1631833079,74,13.2167,-59.5167,84.81,16.11
431,lata,8,1631833080,98,40.1629,-8.3327,65.05,1.68
432,maragogi,4,1631833080,84,-9.0122,-35.2225,75.51,12.19
433,praya,75,1631833081,83,14.9215,-23.5087,81.14,17.27
434,tura,93,1631832835,94,25.5198,90.2201,72.01,2.77
435,los llanos de aridane,20,1631833082,82,28.6585,-17.9182,71.35,13.8
436,east wenatchee bench,7,1631833082,25,47.4257,-120.2812,70.45,4.0
437,bonavista,100,1631833084,89,48.6499,-53.1147,65.12,13.73
438,altay,93,1631833085,30,47.8667,88.1167,59.77,4.03
439,haverfordwest,98,1631833085,90,51.8017,-4.9691,63.16,11.7
440,domoni,9,1631833086,86,-12.2569,44.5319,74.59,6.22
441,ouesso,100,1631832804,98,1.6136,16.0517,67.98,2.86
442,iracoubo,20,1631833087,79,5.4802,-53.2011,81.39,9.46
443,karasjok,93,1631833088,74,69.4719,25.5112,39.31,7.07
444,borogontsy,100,1631833088,93,62.6683,131.1683,48.24,9.95
445,paka,89,1631833089,100,4.6374,103.4368,75.13,0.0
446,saint-augustin,42,1631833089,57,51.226,-58.6502,56.28,12.48
447,dolores,0,1631833090,73,-36.3132,-57.6792,55.45,7.38
448,katobu,99,1631833090,90,-4.9408,122.5276,75.54,4.0
449,razole,98,1631833091,87,16.4833,81.8333,78.46,2.68
450,imbituba,100,1631833091,77,-28.24,-48.6703,62.49,5.23
451,umea,90,1631833092,93,63.8284,20.2597,43.92,4.61
452,narasannapeta,97,1631833092,84,18.4167,84.05,78.8,5.39
453,podares,78,1631833093,53,41.6139,22.5422,66.9,2.21
454,port blair,100,1631833093,83,11.6667,92.75,78.69,7.34
455,pombia,0,1631833094,95,45.653,8.6336,65.61,4.61
456,novyy urgal,0,1631833094,85,51.0736,132.5642,48.74,3.27
457,washington,6,1631832807,23,47.5001,-120.5015,68.9,7.11
458,palmer,75,1631833096,78,42.1584,-72.3287,72.48,1.01
459,kamenka,22,1631833096,80,51.3223,42.7678,42.55,2.53
460,corinto,4,1631833097,61,37.9407,22.9573,74.75,1.61
461,acarau,0,1631833000,85,-2.8856,-40.12,79.16,14.9
462,phan thiet,99,1631833097,91,10.9333,108.1,76.51,3.02
463,tiarei,14,1631833098,73,-17.5333,-149.3333,84.22,20.15
464,porto velho,20,1631833098,66,-8.7619,-63.9039,86.05,2.3
465,dudinka,70,1631833099,87,69.4058,86.1778,35.51,7.63
466,carahue,2,1631833099,96,-38.7,-73.1667,53.8,3.22
467,sabang,55,1631833100,74,5.8933,95.3214,80.87,3.67
468,sydney,20,1631832763,75,-33.8679,151.2073,63.81,1.01
469,mastic beach,90,1631833101,85,40.7668,-72.8521,74.39,3.0
470,majdanpek,99,1631833101,60,44.4277,21.946,64.18,0.83
471,grenaa,100,1631833102,95,56.4158,10.8783,55.62,20.29
472,krasnoselkup,100,1631833102,92,65.7,82.4667,43.0,18.79
473,sulangan,100,1631833103,82,11.1373,123.7228,80.11,8.05
474,kondinskoye,100,1631833103,93,59.6481,67.41,41.9,9.15
475,kaeo,94,1631833104,84,-35.1,173.7833,61.32,7.23
476,hushitai,89,1631833105,90,41.9322,123.5114,60.71,8.7
477,sibolga,58,1631833105,84,1.7427,98.7792,75.92,2.8
478,namibe,21,1631832857,90,-15.1961,12.1522,61.36,6.22
479,natchitoches,90,1631833106,83,31.7668,-93.1335,79.48,8.05
480,christchurch,90,1631832977,60,-43.5333,172.6333,47.91,1.99
481,sitka,100,1631833106,85,57.0531,-135.33,49.12,7.2
482,gualeguay,0,1631833107,72,-33.1416,-59.3097,55.87,7.74
483,rio grande,0,1631833108,71,-32.035,-52.0986,56.1,11.21
484,solnechnyy,38,1631833108,76,50.7214,136.6319,56.97,3.83
485,chipinge,31,1631833109,69,-20.1883,32.6236,61.77,4.18
486,khem karan,1,1631833109,76,31.1428,74.5667,82.49,6.87
487,pozo colorado,77,1631833110,69,-23.4923,-58.7972,65.75,3.83
488,bani,91,1631833110,81,18.2833,-70.3333,82.85,8.39
489,yeniseysk,100,1631833111,89,58.4497,92.1703,45.55,9.62
490,mezhdurechensk,47,1631833111,92,53.6942,88.0603,46.02,3.22
491,vanderhoof,67,1631833112,28,54.0166,-124.0198,59.02,7.16
492,kanel,0,1631833112,84,15.4916,-13.1763,84.2,2.3
493,vigrestad,91,1631833113,74,58.5667,5.7,57.0,5.46
494,gaoua,16,1631833113,86,10.2992,-3.2508,73.94,3.8
495,binzhou,100,1631833114,94,37.3667,118.0167,66.81,7.96
496,comodoro rivadavia,20,1631833114,39,-45.8667,-67.5,62.46,19.57
497,gusinoye ozero,76,1631833115,86,51.1144,106.2614,48.34,5.01
498,los altos,1,1631833115,62,37.3852,-122.1141,81.48,7.0
499,valdemarpils,100,1631833116,87,57.3707,22.5919,51.22,10.8
500,santana do livramento,0,1631833116,85,-30.8908,-55.5328,53.31,6.6
501,abu kamal,6,1631833114,34,34.4506,40.9171,80.35,6.38
502,pacifica,90,1631833117,81,37.6138,-122.4869,78.75,4.0
503,sampit,99,1631833118,93,-2.5333,112.95,73.94,1.81
504,georgiyevka,0,1631833118,62,43.0369,74.7114,53.64,4.47
505,mahanje,2,1631833119,78,-9.9333,35.3333,63.32,2.53
506,pasighat,100,1631833119,96,28.0667,95.3333,74.59,2.42
507,half moon bay,90,1631832849,74,37.4636,-122.4286,79.75,6.91
508,shelburne,9,1631833120,71,44.0787,-80.2041,68.79,7.49
509,puerto gaitan,91,1631832991,92,4.3133,-72.0816,73.17,4.03
510,halifax,100,1631832873,82,44.6453,-63.5724,66.2,5.75
511,kargasok,100,1631833121,96,59.0556,80.8572,53.35,11.97
512,serenje,9,1631833121,39,-13.2325,30.2352,65.55,4.27
513,boromo,22,1631833122,71,11.75,-2.9333,78.53,4.21
514,alamogordo,1,1631832998,21,32.8995,-105.9603,93.96,5.75
515,contai,100,1631833123,89,21.7786,87.7536,79.45,1.86
516,leningradskiy,91,1631833123,77,69.3833,178.4167,29.32,8.59
517,ballina,10,1631833123,70,-28.8667,153.5667,62.78,9.22
518,winnemucca,1,1631832837,15,40.973,-117.7357,82.45,8.05
519,sukhobezvodnoye,100,1631833124,67,57.0491,44.8891,42.24,5.46
520,petrila,86,1631833125,66,45.45,23.4167,61.66,3.09
521,clarksville,97,1631832988,84,36.5298,-87.3595,83.14,5.97
522,uvalde,1,1631833125,38,29.3669,-99.767,94.59,0.0
523,mangrol,97,1631833126,87,21.1167,70.1167,80.04,13.89
524,la merced,87,1631833126,95,5.4019,-75.8847,73.26,2.33
525,asau,95,1631833127,84,46.4333,26.4,61.95,4.76
526,tinde,23,1631833128,53,-3.8833,33.2,74.32,1.92
527,pangkalanbuun,100,1631833128,90,-2.6833,111.6167,75.04,2.77
528,tangshan,52,1631833129,66,39.6333,118.1833,63.28,5.3
529,bandar-e lengeh,1,1631833129,55,26.5579,54.8807,89.73,7.43
530,boshnyakovo,92,1631833130,81,49.6333,142.1667,57.25,17.18
531,san jeronimo,91,1631833130,61,-11.9472,-75.2829,56.53,5.26
532,bodden town,40,1631833130,79,19.2833,-81.25,86.0,7.0
533,adilpur,0,1631833131,46,27.937,69.3187,85.89,10.65
534,padang,70,1631833132,86,-0.9492,100.3543,75.25,4.07
535,nola,49,1631833132,46,40.922,14.5329,76.55,0.29
536,guerrero negro,5,1631833133,63,27.9769,-114.0611,75.45,21.99
537,jiblah,51,1631833133,61,13.9216,44.1467,66.94,2.89
538,ballangen,40,1631833134,61,68.3428,16.8315,48.42,6.91
539,estelle,61,1631833134,71,29.8458,-90.1067,87.8,5.01
540,iquitos,40,1631833135,66,-3.7481,-73.2472,86.04,3.44
541,najran,25,1631833135,22,17.4924,44.1277,75.85,3.6
542,dubbo,0,1631833136,72,-32.25,148.6167,57.33,11.5
543,port-cartier,3,1631833137,74,50.0334,-66.8654,57.42,5.79
544,pimenteiras,99,1631833139,25,-6.2453,-41.4192,88.02,3.24
545,mitsamiouli,13,1631833139,80,-11.3847,43.2844,76.26,9.37
546,russell,75,1631833140,78,32.3502,-85.1999,79.75,8.05
547,bull savanna,78,1631833140,79,17.8868,-77.5902,80.04,11.74
548,san vicente,100,1631833141,99,-26.6167,-54.1333,59.18,7.56
549,ipswich,94,1631833034,87,52.0592,1.1555,61.81,4.97
550,luganville,82,1631832942,75,-15.5333,167.1667,79.7,6.62
551,pout,20,1631833142,78,14.7739,-17.0603,82.38,3.44
552,san ramon,0,1631833139,58,37.7799,-121.978,80.82,8.99
553,dir,0,1631833142,75,35.2058,71.8756,65.66,3.53
554,kamaishi,100,1631833143,75,39.2667,141.8833,65.35,7.4
555,waipawa,100,1631833143,70,-41.4122,175.5153,47.03,16.24
556,herat,0,1631833144,17,34.5,62.0,69.31,8.16
557,alghero,40,1631832852,94,40.5589,8.3181,73.49,3.44
558,maloy,94,1631833145,96,61.9353,5.1136,56.07,8.32
559,sterling,90,1631832966,93,39.0062,-77.4286,76.51,0.0
560,lakatoro,76,1631833145,72,-16.0999,167.4164,79.72,6.26
561,tshikapa,79,1631833057,86,-6.4167,20.8,71.04,3.42
562,yangjiang,91,1631833146,83,21.85,111.9667,79.3,4.18
563,gamovo,75,1631833147,93,57.8652,56.1056,44.22,8.95
564,port pirie,98,1631833147,42,-33.1833,138.0167,71.69,7.78
565,erzin,7,1631833148,81,36.9559,36.2,69.01,2.1
566,wanning,32,1631833148,85,18.8003,110.3967,78.35,7.0
567,banjarmasin,99,1631833149,94,-3.3244,114.591,75.34,2.44
568,bignona,100,1631833149,90,12.8103,-16.2264,78.84,3.0
569,muzhi,85,1631833150,91,65.3667,64.6667,35.47,15.46
570,sebastian,3,1631833150,41,35.1668,-94.2669,88.65,7.99
571,lichinga,0,1631833151,68,-13.3128,35.2406,66.29,6.91
572,perth,40,1631832868,96,-31.9333,115.8333,42.98,5.75
573,kanye,5,1631833151,21,-24.9667,25.3327,51.21,7.83
574,coahuayana,92,1631833152,79,18.7333,-103.6833,83.41,4.85
575,moroni,17,1631833152,82,-11.7022,43.2551,74.82,0.69
576,storslett,100,1631833153,80,69.7678,21.0247,41.4,10.16
577,waterloo,20,1631833146,56,43.4668,-80.5164,72.28,12.66
578,te anau,70,1631833154,88,-45.4167,167.7167,39.15,1.54
579,wewak,73,1631833154,84,-3.5534,143.6268,78.73,5.01
580,sankeshwar,94,1631833155,97,16.2667,74.4833,66.96,5.35
581,kumylzhenskaya,0,1631833155,62,49.8809,42.5898,46.42,3.2
582,port macquarie,1,1631833156,59,-31.4333,152.9167,53.56,1.86
