City ID,City,Country,Cloudiness,Date,Humidity,Lat,Lng,Max Temp,Wind Speed
0,kieta,PG,100,1632165190,79,-6.2167,155.6333,77.43,3.24
1,saint-philippe,RE,98,1632165190,82,-21.3585,55.7679,67.59,14.92
2,kingisepp,RU,99,1632165191,65,59.3733,28.6134,42.44,9.53
3,krasnoarmeysk,RU,100,1632165191,77,51.0239,45.6969,48.7,14.03
4,kodiak,US,98,1632164456,83,57.79,-152.4072,49.39,17.98
5,verkhoyansk,RU,19,1632165191,85,67.5447,133.385,30.58,4.34
6,katsuura,JP,17,1632165192,78,35.1333,140.3,69.91,9.4
7,vallenar,CL,0,1632165192,17,-28.5708,-70.7581,81.88,9.86
8,puerto ayora,EC,100,1632165193,78,-0.7393,-90.3518,80.56,12.68
9,busselton,AU,0,1632165193,66,-33.65,115.3333,52.36,11.01
10,rikitea,PF,13,1632165194,77,-23.1203,-134.9692,74.07,17.36
11,eldorado,BR,0,1632165194,12,-23.7869,-54.2836,104.18,8.86
12,camacha,PT,40,1632165194,68,33.0833,-16.3333,70.56,14.97
13,honiara,SB,73,1632164972,87,-9.4333,159.95,76.46,6.89
14,olafsvik,IS,88,1632164900,80,64.8945,-23.7142,44.82,13.49
15,khor,RU,100,1632165195,80,47.8861,134.9464,50.25,5.57
16,svetlogorsk,BY,100,1632165196,93,52.6333,29.7333,40.48,9.33
17,bonfim,BR,100,1632165196,54,3.0833,-59.95,89.49,5.5
18,yellowknife,CA,75,1632165197,81,62.456,-114.3525,46.92,3.44
19,tabou,CI,65,1632164602,87,4.423,-7.3528,77.74,5.75
20,along,IN,81,1632165197,96,28.1667,94.7667,72.27,2.01
21,carnarvon,AU,0,1632164732,25,-24.8667,113.6333,64.47,10.36
22,mirnyy,RU,99,1632165198,80,62.5353,113.9611,34.45,8.12
23,maniitsoq,GL,38,1632165198,58,65.4167,-52.9,35.26,6.08
24,mahebourg,MU,44,1632164741,73,-20.4081,57.7,69.04,16.96
25,praia da vitoria,PT,40,1632165148,88,38.7333,-27.0667,71.85,11.1
26,bengkulu,ID,100,1632164608,87,-3.8004,102.2655,76.44,3.11
27,punta arenas,CL,75,1632164962,62,-53.15,-70.9167,53.71,25.32
28,aswan,EG,24,1632165199,12,24.0934,32.907,93.83,6.67
29,avarua,CK,75,1632165200,78,-21.2078,-159.775,78.85,8.05
30,vaini,TO,40,1632165200,88,-21.2,-175.2,69.96,9.22
31,vila franca do campo,PT,23,1632165200,76,37.7167,-25.4333,70.21,11.18
32,vila velha,BR,20,1632165087,69,-20.3297,-40.2925,80.55,10.36
33,albany,US,7,1632165201,47,42.6001,-73.9662,76.95,7.63
34,north bend,US,1,1632165201,56,43.4065,-124.2243,67.91,3.44
35,sobolevo,RU,100,1632165202,97,54.4299,31.8996,43.2,10.47
36,christchurch,NZ,100,1632165202,66,-43.5333,172.6333,52.0,11.5
37,tiksi,RU,100,1632165203,71,71.6872,128.8694,31.75,5.48
38,kaputa,ZM,0,1632165203,39,-8.4689,29.6619,78.93,1.66
39,coquimbo,CL,0,1632165196,59,-29.9533,-71.3436,64.13,14.97
40,arraial do cabo,BR,0,1632165204,78,-22.9661,-42.0278,76.96,25.32
41,hobart,AU,75,1632165204,57,-42.8794,147.3294,44.46,14.97
42,pangnirtung,CA,75,1632165205,69,66.1451,-65.7125,35.6,9.22
43,faya,SA,2,1632165205,28,18.3851,42.4509,72.12,5.57
44,moss point,US,1,1632165205,62,30.4116,-88.5345,89.62,4.61
45,kapaa,US,75,1632165206,74,22.0752,-159.319,82.38,16.11
46,east london,ZA,41,1632165206,58,-33.0153,27.9116,60.08,27.11
47,thompson,CA,75,1632164466,76,55.7435,-97.8558,50.16,6.91
48,owensboro,US,75,1632164971,74,37.7742,-87.1133,84.18,14.97
49,baruun-urt,MN,100,1632165192,87,46.6806,113.2792,51.53,1.19
50,saint-pierre,RE,0,1632165207,73,-21.3393,55.4781,67.68,17.27
51,port elizabeth,ZA,75,1632165208,62,-33.918,25.5701,57.49,18.41
52,paamiut,GL,8,1632165208,80,61.994,-49.6678,36.03,30.8
53,amalapuram,IN,100,1632165209,90,16.5833,82.0167,77.99,4.09
54,chuy,UY,87,1632165209,87,-33.6971,-53.4616,67.23,9.53
55,ulladulla,AU,69,1632165209,72,-35.35,150.4667,45.09,9.17
56,gweta,BW,20,1632165077,19,-20.1833,25.2333,82.29,9.04
57,ust-kuyga,RU,100,1632165210,67,70.0167,135.6,28.99,5.99
58,tuktoyaktuk,CA,75,1632165211,70,69.4541,-133.0374,42.8,8.05
59,launceston,AU,7,1632165211,70,-41.45,147.1667,38.84,9.22
60,castro,BR,1,1632164766,39,-24.7911,-50.0119,86.81,5.12
61,roald,NO,75,1632165212,62,62.5833,6.1333,58.12,11.5
62,port lincoln,AU,99,1632165212,62,-34.7333,135.8667,51.6,17.16
63,yar-sale,RU,99,1632164924,90,66.8333,70.8333,36.05,12.41
64,puerto ayacucho,VE,100,1632165213,66,5.6639,-67.6236,85.89,2.13
65,mataura,NZ,100,1632165213,93,-46.1927,168.8643,41.27,2.17
66,sisimiut,GL,100,1632165214,67,66.9395,-53.6735,34.29,3.56
67,panjab,AF,0,1632165214,30,34.388,67.0233,50.59,5.5
68,hilo,US,90,1632165215,78,19.7297,-155.09,74.93,6.91
69,upernavik,GL,100,1632165215,77,72.7868,-56.1549,30.51,8.59
70,barrow,US,90,1632165216,80,71.2906,-156.7887,30.22,20.71
71,tuy hoa,VN,100,1632165216,93,13.0833,109.3,74.88,8.63
72,kloulklubed,PW,100,1632165216,80,7.0419,134.2556,79.43,4.25
73,khovu-aksy,RU,100,1632165217,51,51.1333,93.6,36.23,2.57
74,kudahuvadhoo,MV,7,1632165217,76,2.6708,72.8944,82.36,9.82
75,khatanga,RU,100,1632164650,99,71.9667,102.5,32.43,1.23
76,portland,US,20,1632165049,74,45.5234,-122.6762,64.98,4.61
77,cidreira,BR,91,1632165074,91,-30.1811,-50.2056,69.04,3.65
78,tasiilaq,GL,89,1632165218,66,65.6145,-37.6368,39.36,7.31
79,bredasdorp,ZA,4,1632165219,76,-34.5322,20.0403,49.32,5.75
80,gazanjyk,TM,0,1632165219,24,39.2446,55.5154,75.52,15.14
81,morehead,US,90,1632165221,78,37.2711,-87.1764,80.31,11.5
82,cape town,ZA,20,1632165091,66,-33.9258,18.4232,52.21,9.22
83,carbonia,IT,4,1632165221,76,39.1672,8.5222,74.35,7.81
84,wau,SS,86,1632165222,95,7.7029,27.9953,72.12,4.29
85,ushuaia,AR,100,1632165008,85,-54.8,-68.3,46.02,7.47
86,wadi maliz,TN,100,1632165222,69,36.4681,8.5495,74.86,4.38
87,ziro,IN,40,1632165223,96,27.6333,93.8333,55.76,1.88
88,alofi,NU,75,1632165223,100,-19.0595,-169.9187,73.29,5.75
89,leningradskiy,RU,100,1632165224,85,69.3833,178.4167,20.93,10.54
90,butembo,CD,87,1632165224,92,0.15,29.2833,59.11,2.35
91,moberly,US,40,1632165197,40,39.4184,-92.4382,89.64,12.66
92,dikson,RU,100,1632164689,75,73.5069,80.5464,34.72,7.99
93,luganville,VU,71,1632165225,79,-15.5333,167.1667,74.7,10.87
94,fort-shevchenko,KZ,99,1632165226,53,44.5086,50.263,70.81,7.99
95,jamestown,US,1,1632165226,69,42.097,-79.2353,78.39,10.36
96,port alfred,ZA,14,1632165227,60,-33.5906,26.891,58.23,34.78
97,yakeshi,CN,100,1632164780,79,49.2833,120.7333,46.62,4.68
98,kaitangata,NZ,100,1632164785,85,-46.2817,169.8464,45.09,4.63
99,new norfolk,AU,34,1632165228,95,-42.7826,147.0587,44.1,4.23
100,hithadhoo,MV,99,1632165228,72,-0.6,73.0833,83.8,11.41
101,ponta do sol,PT,14,1632165229,79,32.6667,-17.1,74.03,4.18
102,nova olimpia,BR,0,1632165229,9,-14.7972,-57.2881,108.25,6.82
103,atuona,PF,21,1632165229,75,-9.8,-139.0333,77.41,20.98
104,springbok,ZA,37,1632165230,64,-29.6643,17.8865,49.64,8.95
105,payo,ID,100,1632165230,98,-3.7508,103.6372,71.64,2.15
106,waterford,US,90,1632165231,65,42.7023,-83.4027,81.5,8.05
107,mizdah,LY,0,1632165231,17,31.4451,12.9801,84.56,5.64
108,saint george,US,1,1632165106,23,37.1041,-113.5841,81.07,0.0
109,lebu,CL,0,1632165232,70,-37.6167,-73.65,52.88,20.76
110,tigil,RU,100,1632164874,96,57.8,158.6667,46.38,9.69
111,maragheh,IR,0,1632165233,24,37.3917,46.2398,68.54,3.02
112,lar,IN,91,1632165233,81,26.2039,83.9717,81.28,7.09
113,emmaus,US,40,1632165234,48,40.5395,-75.4968,78.37,10.36
114,bairiki,KI,40,1632165234,78,1.3292,172.9752,80.6,9.22
115,kahului,US,20,1632165235,57,20.8947,-156.47,83.46,18.41
116,presidencia roque saenz pena,AR,83,1632165235,61,-26.7852,-60.4388,80.4,16.15
117,matara,LK,67,1632164871,89,5.9485,80.5353,78.15,8.25
118,deep river,CA,100,1632165161,31,46.1001,-77.4995,71.35,8.97
119,san juan,AR,6,1632165236,22,-31.5375,-68.5364,67.66,18.97
120,siilinjarvi,FI,0,1632165237,81,63.0833,27.6667,41.02,8.05
121,ribeira grande,PT,20,1632165237,68,38.5167,-28.7,72.0,17.27
122,chokurdakh,RU,93,1632165238,87,70.6333,147.9167,22.86,7.4
123,grand falls,CA,0,1632165238,47,47.0461,-67.7418,70.36,7.07
124,mahibadhoo,MV,11,1632165239,77,3.7833,72.9667,81.82,10.11
125,lazo,RU,100,1632165239,83,43.3817,133.9014,56.3,1.74
126,kirakira,SB,81,1632165239,87,-10.4544,161.9205,77.99,9.37
127,qaanaaq,GL,84,1632165240,71,77.484,-69.3632,16.18,9.15
128,valparaiso,CL,0,1632165236,45,-33.0393,-71.6273,73.04,13.8
129,skibbereen,IE,100,1632165241,86,51.55,-9.2667,60.6,2.93
130,port moresby,PG,84,1632165242,93,-9.4431,147.1797,74.73,4.63
131,lamar,US,1,1632165242,41,33.6668,-95.5836,96.71,13.8
132,hermanus,ZA,6,1632164645,61,-34.4187,19.2345,54.59,4.56
133,daru,PG,100,1632165243,90,-9.0763,143.2092,76.66,15.43
134,newport,GB,4,1632165243,80,51.5877,-2.9984,62.64,2.84
135,isabela,PH,100,1632165244,84,6.7085,121.9711,78.21,0.96
136,dagana,MR,7,1632165244,21,16.5165,-15.5068,101.57,12.97
137,laguna,US,1,1632165245,26,38.421,-121.4238,84.49,14.97
138,santa rosa,PH,100,1632165245,89,14.3122,121.1114,77.68,5.3
139,esperance,AU,6,1632165246,87,-33.8667,121.9,45.75,12.03
140,provideniya,RU,90,1632165247,69,64.3833,-173.3,30.31,6.71
141,dafeng,CN,17,1632165247,84,23.4517,108.5881,78.33,2.33
142,pevek,RU,97,1632165248,83,69.7008,170.3133,26.31,4.45
143,marzuq,YE,100,1632165248,50,14.4,46.4667,81.25,4.54
144,yulara,AU,0,1632165249,33,-25.2406,130.9889,55.24,13.8
145,dongsheng,CN,0,1632165249,54,39.8161,109.9776,56.66,6.8
146,mar del plata,AR,20,1632164950,67,-38.0023,-57.5575,55.42,18.41
147,shenjiamen,CN,67,1632165250,89,29.9576,122.298,73.17,8.39
148,azoyu,MX,5,1632165250,63,16.7167,-98.7333,86.85,6.64
149,tafresh,IR,0,1632165251,23,34.692,50.013,68.88,5.37
150,punta de bombon,PE,92,1632165252,73,-17.1717,-71.7931,62.83,8.23
151,umm lajj,SA,13,1632165252,49,25.0213,37.2685,88.54,8.63
152,bluff,NZ,100,1632165253,89,-46.6,168.3333,47.61,16.51
153,georgetown,MY,40,1632164977,94,5.4112,100.3354,78.73,0.0
154,longyearbyen,SJ,100,1632165254,97,78.2186,15.6401,41.34,5.53
155,polson,US,86,1632165255,66,47.6936,-114.1632,55.54,5.75
156,narsaq,GL,3,1632165255,60,60.9167,-46.05,43.02,1.21
157,butaritari,KI,58,1632164965,77,3.0707,172.7902,82.35,12.06
158,lazaro cardenas,MX,84,1632165256,70,17.9583,-102.2,85.41,4.72
159,emerald,AU,17,1632165067,29,-23.5333,148.1667,66.69,11.07
160,victoria,HK,89,1632165054,80,22.2855,114.1577,84.25,5.79
161,cabra,ES,0,1632165257,28,37.4725,-4.4421,78.24,3.24
162,suez,EG,0,1632165257,62,29.9737,32.5263,78.13,11.16
163,carmen,MX,40,1632165258,62,18.6333,-91.8333,89.64,8.05
164,torbay,CA,75,1632165259,71,47.6666,-52.7314,48.97,25.32
165,khani,GE,1,1632165259,88,41.9563,42.9566,54.97,5.57
166,cedar city,US,1,1632165144,25,37.6775,-113.0619,61.77,13.8
167,sokoni,TZ,0,1632165260,75,-6.4333,39.55,77.04,15.73
168,port-gentil,GA,100,1632165260,84,-0.7193,8.7815,77.11,14.65
169,kavieng,PG,100,1632165261,76,-2.5744,150.7967,80.35,4.54
170,antalaha,MG,81,1632165261,73,-14.9003,50.2788,70.2,8.3
171,bonavista,CA,100,1632165262,67,48.6499,-53.1147,48.2,28.5
172,nago,JP,5,1632165263,72,26.5881,127.9761,81.45,1.43
173,inuvik,CA,75,1632165263,61,68.3499,-133.7218,47.16,3.44
174,cabo san lucas,MX,75,1632165215,94,22.8909,-109.9124,81.7,9.22
175,saskylakh,RU,100,1632165264,87,71.9167,114.0833,31.46,4.52
176,diego de almagro,CL,79,1632165089,15,-26.3667,-70.05,78.48,10.09
177,road town,VG,20,1632165264,79,18.4167,-64.6167,87.84,4.61
178,mana,GF,34,1632164880,66,5.6592,-53.7767,85.8,11.27
179,alugan,PH,94,1632165265,83,12.2188,125.4808,79.14,5.01
180,lasa,IT,100,1632165266,94,46.6166,10.7002,58.91,2.71
181,geraldton,AU,0,1632164736,48,-28.7667,114.6,64.81,16.11
182,nikolskoye,RU,98,1632165266,68,59.7035,30.7861,44.49,8.93
183,lorengau,PG,100,1632165267,84,-2.0226,147.2712,78.84,6.11
184,iqaluit,CA,90,1632165267,64,63.7506,-68.5145,31.73,4.61
185,acapulco,MX,20,1632165175,62,16.8634,-99.8901,89.42,4.61
186,luanda,AO,4,1632165239,87,-8.8368,13.2343,72.28,13.58
187,awbari,LY,0,1632164746,17,26.5921,12.7805,85.78,8.25
188,griffith,US,90,1632165268,69,41.5284,-87.4237,82.33,11.5
189,santa ines,BR,55,1632165269,40,-3.6667,-45.38,92.35,6.69
190,ahome,MX,98,1632165269,57,25.9167,-109.1833,85.95,12.97
191,ratnagiri,IN,100,1632165270,88,16.9833,73.3,78.48,4.14
192,imeni poliny osipenko,RU,99,1632165270,76,52.4201,136.4853,47.7,4.05
193,thurso,GB,100,1632165270,84,58.5927,-3.5259,55.65,18.84
194,cockburn town,TC,68,1632165271,78,21.4612,-71.1419,82.65,16.42
195,bayanday,RU,100,1632165271,90,53.0661,105.5139,47.05,15.93
196,constitucion,CL,0,1632165272,54,-35.3333,-72.4167,59.29,15.39
197,codrington,AU,96,1632165273,67,-38.2667,141.9667,45.39,19.08
198,kruisfontein,ZA,24,1632165273,60,-34.0033,24.7314,52.65,23.26
199,muros,ES,0,1632165274,74,42.7762,-9.0603,63.1,16.4
200,bull savanna,JM,64,1632165274,66,17.8868,-77.5902,82.22,4.83
201,luoyang,CN,0,1632165275,69,34.6836,112.4536,66.69,6.93
202,clyde river,CA,20,1632165275,74,70.4692,-68.5914,32.23,17.27
203,ambilobe,MG,22,1632165276,70,-13.2,49.05,71.33,7.23
204,hecun,CN,0,1632165277,64,36.5333,114.1111,67.57,11.12
205,eureka,US,0,1632165124,59,40.8021,-124.1637,66.81,10.25
206,faanui,PF,16,1632165277,70,-16.4833,-151.75,78.53,15.23
207,broken hill,AU,1,1632165278,76,-31.95,141.4333,40.95,16.89
208,mount isa,AU,100,1632165279,23,-20.7333,139.5,69.57,21.85
209,leshukonskoye,RU,16,1632164826,89,64.8989,45.7622,33.67,2.44
210,garissa,KE,6,1632165279,61,-0.4536,39.6401,78.22,22.93
211,sandwick,GB,40,1632165280,87,60.0,-1.25,53.42,19.57
212,mayo,US,40,1632165280,47,38.8876,-76.5119,79.21,6.91
213,great falls,US,75,1632165206,31,47.5002,-111.3008,61.99,11.5
214,nizwa,OM,4,1632165281,50,22.9333,57.5333,85.37,5.82
215,te anau,NZ,100,1632165281,98,-45.4167,167.7167,40.75,0.78
216,bilibino,RU,76,1632165282,88,68.0546,166.4372,15.31,5.91
217,dingle,PH,100,1632165282,95,10.9995,122.6711,74.62,1.5
218,pontianak,ID,100,1632165283,92,-0.0333,109.3333,75.24,1.03
219,macherla,IN,100,1632165284,80,16.4833,79.4333,79.23,2.91
220,grindavik,IS,75,1632165284,87,63.8424,-22.4338,46.35,19.57
221,rancho palos verdes,US,1,1632165207,47,33.7445,-118.387,84.18,6.91
222,sherpur,BD,22,1632165285,93,25.0188,90.0175,75.31,6.02
223,bambous virieux,MU,75,1632165286,68,-20.3428,57.7575,70.05,16.11
224,pskov,RU,75,1632165286,75,57.8136,28.3496,42.71,11.18
225,marakkanam,IN,100,1632165287,77,12.2,79.95,82.56,14.09
226,padang,ID,73,1632165287,90,-0.9492,100.3543,75.25,3.18
227,manyana,BW,0,1632165288,15,-23.4,21.7167,68.04,15.35
228,college,US,90,1632165288,67,64.8569,-147.8028,35.55,5.75
229,gigmoto,PH,100,1632165289,85,13.7796,124.39,80.19,7.0
230,san jose,US,1,1632164994,26,37.3394,-121.895,81.68,3.44
231,vetlanda,SE,100,1632165289,92,57.4289,15.0776,48.07,3.15
232,huanren,CN,100,1632165290,96,41.2647,125.3667,61.79,5.57
233,chilliwack,CA,93,1632165000,86,49.1747,-121.9443,61.18,1.81
234,kuching,MY,40,1632165291,94,1.55,110.3333,75.42,2.3
235,wladyslawowo,PL,15,1632165292,66,54.7909,18.4009,47.75,14.16
236,xichang,CN,0,1632165293,82,27.8964,102.2634,60.66,2.1
237,robe,AU,100,1632165294,58,-37.1833,139.75,50.79,23.89
238,lubango,AO,18,1632165294,37,-14.9172,13.4925,68.23,4.43
239,ginda,IN,86,1632165295,95,30.6945,78.4932,65.1,1.01
240,fairbanks,US,90,1632165295,66,64.8378,-147.7164,35.56,4.61
241,ostrovnoy,RU,94,1632165296,78,68.0531,39.5131,37.72,9.64
242,jales,BR,0,1632165296,10,-20.2689,-50.5458,104.16,8.3
243,chicama,PE,3,1632165297,59,-7.8447,-79.1469,72.73,11.92
244,kupang,ID,93,1632165297,77,-10.1667,123.5833,75.02,8.03
245,talnakh,RU,81,1632165298,86,69.4865,88.3972,30.43,4.76
246,busayra,JO,0,1632165298,36,30.7376,35.6078,72.88,3.83
247,beringovskiy,RU,100,1632165299,94,63.05,179.3167,41.13,7.4
248,mayna,RU,100,1632165299,54,54.1135,47.6231,45.18,12.84
249,guerrero negro,MX,0,1632165300,51,27.9769,-114.0611,78.6,9.6
250,vardo,NO,0,1632165301,65,70.3705,31.1107,44.8,19.57
251,khandyga,RU,100,1632165301,97,62.6667,135.6,33.55,1.74
252,sangar,RU,14,1632165302,95,63.9242,127.4739,30.97,1.57
253,krasnaya gora,RU,100,1632165302,98,52.9995,31.6023,45.05,9.46
254,hualmay,PE,13,1632165303,70,-11.0964,-77.6139,65.97,10.56
255,viedma,AR,0,1632165263,21,-40.8135,-62.9967,65.01,13.15
256,sao filipe,CV,99,1632165304,80,14.8961,-24.4956,80.06,6.87
257,srivardhan,IN,65,1632165305,88,18.0333,73.0167,78.19,1.16
258,hohhot,CN,0,1632165305,93,40.8106,111.6522,44.89,4.47
259,aykhal,RU,100,1632165306,81,66.0,111.5,35.1,5.48
260,bolgatanga,GH,41,1632165306,60,10.7856,-0.8514,83.89,4.18
261,kamenka,RU,100,1632165307,81,51.3223,42.7678,48.22,16.06
262,mackay,AU,4,1632164788,89,-21.15,149.2,64.15,6.46
263,brownwood,US,1,1632165307,26,31.7093,-98.9912,99.72,10.36
264,lokosovo,RU,100,1632165308,71,61.1333,74.8167,36.45,12.88
265,hamilton,US,90,1632165308,91,39.1834,-84.5333,76.75,4.61
266,pochutla,MX,100,1632165309,58,15.7432,-96.4661,86.85,5.84
267,pisco,PE,14,1632165309,65,-13.7,-76.2167,66.51,8.61
268,port hawkesbury,CA,1,1632165310,55,45.6169,-61.3485,63.99,10.36
269,airai,TL,87,1632165310,66,-8.9266,125.4092,57.15,3.94
270,haines junction,CA,100,1632165311,87,60.7522,-137.5108,39.15,0.0
271,michigan city,US,100,1632165203,86,41.7075,-86.895,81.1,16.37
272,mwinilunga,ZM,5,1632165312,22,-11.7358,24.4293,70.0,4.72
273,trebinje,BA,0,1632165267,68,42.7119,18.3442,68.36,4.61
274,qaqortoq,GL,0,1632165312,63,60.7167,-46.0333,43.3,1.23
275,leh,IN,97,1632165313,46,34.1667,77.5833,59.72,5.19
276,severo-kurilsk,RU,98,1632165313,85,50.6789,156.125,47.68,26.62
277,alihe,CN,100,1632165313,92,50.5667,123.7167,44.71,1.95
278,harper,LR,87,1632165314,83,4.375,-7.7169,78.46,5.23
279,auki,SB,22,1632165314,90,-8.7676,160.7034,75.96,4.16
280,baykit,RU,100,1632165315,97,61.67,96.37,38.97,6.49
281,tessalit,ML,0,1632165315,9,20.1986,1.0114,96.33,5.68
282,likasi,CD,0,1632165316,28,-10.9814,26.7333,71.47,3.94
283,iraray,PH,100,1632165316,82,8.9936,118.0511,77.85,2.06
284,aklavik,CA,100,1632165317,68,68.2191,-135.0107,47.12,5.95
285,rudnogorsk,RU,100,1632165317,92,57.2639,103.7519,44.49,6.64
286,zhigansk,RU,100,1632165318,73,66.7697,123.3711,34.07,6.55
287,ponta delgada,PT,40,1632165070,78,37.7333,-25.6667,70.52,9.22
288,mount gambier,AU,88,1632165319,64,-37.8333,140.7667,45.64,12.03
289,zhuanghe,CN,100,1632165320,87,39.7008,122.9911,66.06,20.54
290,klaksvik,FO,81,1632165320,80,62.2266,-6.589,52.72,39.08
291,lagoa,PT,0,1632165321,69,39.05,-27.9833,69.82,10.6
292,ampanihy,MG,0,1632165321,79,-24.7,44.75,63.3,6.8
293,bethel,US,20,1632165076,50,41.3712,-73.414,75.31,9.22
294,riviere-au-renard,CA,0,1632165322,63,48.9957,-64.3971,55.4,12.64
295,avera,US,100,1632164790,97,33.194,-82.5271,76.51,12.46
296,mareeba,AU,100,1632165322,97,-17.0,145.4333,61.52,2.62
297,half moon bay,US,1,1632165323,25,37.4636,-122.4286,84.02,0.0
298,usinsk,RU,100,1632165324,85,65.9939,57.5281,36.21,11.41
299,vostok,RU,100,1632164740,86,46.4856,135.8833,45.23,4.32
300,aginskoye,RU,58,1632165324,93,51.1,114.53,48.4,3.85
301,manggar,ID,100,1632165325,76,-2.8833,108.2667,79.92,6.13
302,tocopilla,CL,100,1632165319,70,-22.092,-70.1979,65.3,9.35
303,adrar,MR,5,1632165326,14,20.5022,-10.0711,99.12,10.51
304,ilulissat,GL,75,1632165326,55,69.2167,-51.1,30.22,10.36
305,verkhnevilyuysk,RU,98,1632165327,85,63.4453,120.3167,28.63,4.38
306,halifax,CA,20,1632165327,56,44.6453,-63.5724,68.49,9.22
307,tuatapere,NZ,100,1632165328,96,-46.1333,167.6833,44.74,4.59
308,palmas,BR,40,1632165328,27,-10.2128,-48.3603,100.27,6.91
309,lufilufi,WS,15,1632165329,76,-13.8745,-171.5986,80.31,13.42
310,kissidougou,GN,77,1632165329,85,9.1848,-10.0999,73.49,2.1
311,rockhampton,AU,5,1632165330,88,-23.3833,150.5,58.89,4.61
312,teya,RU,31,1632165330,98,60.3778,92.6267,31.53,3.98
313,cayenne,GF,20,1632164678,62,4.9333,-52.3333,87.84,10.36
314,muisne,EC,92,1632165331,82,0.6,-80.0333,84.31,11.72
315,margate,GB,14,1632165331,84,51.3813,1.3862,60.51,8.41
316,saldanha,ZA,0,1632165332,64,-33.0117,17.9442,50.05,19.93
317,alice springs,AU,0,1632165332,40,-23.7,133.8833,53.15,9.22
318,hasaki,JP,26,1632165333,69,35.7333,140.8333,63.0,9.53
319,cartagena,CO,40,1632165280,70,10.3997,-75.5144,89.22,9.22
320,rio gallegos,AR,100,1632165091,51,-51.6226,-69.2181,52.3,15.21
321,mahad,IN,96,1632165334,97,18.0833,73.4167,75.81,1.39
322,kununurra,AU,66,1632165318,50,-15.7667,128.7333,75.18,5.75
323,galesong,ID,100,1632165335,79,-5.3166,119.3661,75.22,2.57
324,fourmies,FR,11,1632165335,87,50.0153,4.0478,57.49,7.02
325,bileca,BA,97,1632165069,75,42.8719,18.4297,66.09,2.73
326,puerto madryn,AR,0,1632165262,30,-42.7692,-65.0385,63.27,3.29
327,andra,RU,100,1632165336,88,62.5147,65.8878,33.4,7.85
328,tautira,PF,28,1632165336,72,-17.7333,-149.15,78.82,12.93
329,ayer tawar,MY,40,1632165337,88,4.2954,100.7548,77.29,0.0
330,coihaique,CL,20,1632164870,47,-45.5752,-72.0662,56.01,6.91
331,havre-saint-pierre,CA,1,1632165338,54,50.2334,-63.5986,57.56,9.22
332,lima,PE,75,1632165296,68,-12.0432,-77.0282,62.85,8.05
333,general roca,AR,0,1632165339,24,-39.0333,-67.5833,68.4,3.94
334,alexandria,EG,0,1632165031,68,31.2156,29.9553,81.01,9.01
335,banyo,CM,100,1632165339,91,6.75,11.8167,67.48,2.64
336,saraland,US,32,1632165340,56,30.8207,-88.0706,89.6,6.2
337,san patricio,US,0,1632165340,41,28.017,-97.5169,98.69,11.21
338,cherskiy,RU,49,1632165044,83,68.75,161.3,22.91,6.73
339,la rioja,ES,99,1632165341,89,42.25,-2.5,47.98,6.06
340,puerto quijarro,BO,0,1632165070,8,-17.7833,-57.7667,110.19,5.53
341,troitsko-pechorsk,RU,100,1632165341,68,62.7084,56.1964,38.41,6.6
342,la tuque,CA,39,1632165342,33,47.4334,-72.7824,75.45,6.91
343,la ronge,CA,75,1632165342,54,55.1001,-105.2842,55.65,9.22
344,kirya,TZ,0,1632165343,64,-3.9167,37.4833,73.47,8.93
345,purwodadi,ID,100,1632165343,78,-7.0868,110.9158,76.82,2.93
346,iskateley,RU,100,1632165344,90,67.6803,53.1512,37.76,11.77
347,nanortalik,GL,5,1632165344,75,60.1432,-45.2371,37.81,15.17
348,les cayes,HT,100,1632165345,64,18.2,-73.75,85.89,6.38
349,port hedland,AU,100,1632165345,13,-20.3167,118.5667,78.85,14.97
350,kutum,SD,89,1632165346,31,14.2,24.6667,84.81,7.29
351,panaba,MX,76,1632165346,38,21.2833,-88.2667,97.36,10.51
352,alamogordo,US,1,1632165217,19,32.8995,-105.9603,87.15,10.36
353,karatuzskoye,RU,99,1632165347,78,53.6072,92.8667,40.42,6.67
354,dali,CN,5,1632165347,83,25.7,100.1833,58.24,1.36
355,zharkent,KZ,9,1632164923,34,44.1628,80.0,57.18,4.14
356,lac du bonnet,CA,100,1632165348,49,50.2536,-96.0612,62.31,13.04
357,nabire,ID,100,1632165348,94,-3.3667,135.4833,74.55,2.62
358,isangel,VU,28,1632165349,77,-19.55,169.2667,68.11,6.91
359,plettenberg bay,ZA,100,1632165350,59,-34.0527,23.3716,55.89,19.62
360,tete,MZ,0,1632165351,27,-16.1564,33.5867,75.0,5.3
361,luderitz,NA,0,1632165351,61,-26.6481,15.1594,61.23,25.57
362,saint-joseph,RE,73,1632165352,80,-21.3667,55.6167,66.58,14.65
363,vesoul,FR,43,1632165352,90,47.5833,5.8333,60.75,1.14
364,banjar,ID,99,1632165353,90,-8.19,114.9675,78.66,2.86
365,berlevag,NO,41,1632164778,70,70.8578,29.0864,41.0,25.3
366,kurilsk,RU,100,1632165354,81,45.2333,147.8833,53.65,9.33
367,san quintin,MX,0,1632165354,61,30.4833,-115.95,74.3,8.21
368,the valley,AI,40,1632165354,74,18.217,-63.0578,86.14,9.22
369,maria aurora,PH,95,1632165355,97,15.7967,121.4737,75.13,1.05
370,pacific grove,US,1,1632165065,43,36.6177,-121.9166,82.08,6.91
371,hearst,CA,32,1632165355,54,49.6835,-83.6665,82.65,13.27
372,chardara,KZ,0,1632165356,29,41.2547,67.9692,64.62,10.58
373,eltham,NZ,20,1632165356,97,-39.4292,174.3,42.69,3.76
374,timaru,NZ,87,1632165357,77,-44.4,171.25,46.17,7.83
375,lumut,MY,40,1632165357,88,4.2323,100.6298,77.36,0.0
376,evensk,RU,100,1632165358,88,61.95,159.2333,44.35,19.13
377,asahikawa,JP,100,1632165358,75,43.7678,142.3703,49.62,1.77
378,palana,RU,100,1632165359,84,59.1167,159.9667,44.89,9.42
379,abha,SA,0,1632165359,16,18.2164,42.5053,71.85,11.5
380,namibe,AO,10,1632165360,81,-15.1961,12.1522,63.18,3.78
381,baghdad,IQ,0,1632165179,25,33.3406,44.4009,87.71,5.75
382,lata,PT,0,1632165361,68,40.1629,-8.3327,64.81,2.95
383,bauchi,NG,55,1632165362,68,10.5,10.0,77.68,2.08
384,yahotyn,UA,100,1632165363,91,50.2798,31.7625,49.91,9.1
385,gravdal,NO,75,1632165363,61,68.1214,13.5031,49.68,11.5
386,shimoda,JP,36,1632165364,80,34.6667,138.95,69.04,14.88
387,gasa,PS,0,1632165364,70,31.5,34.4667,80.58,7.43
388,richards bay,ZA,86,1632165365,87,-28.783,32.0377,68.02,14.29
389,qadirpur ran,PK,11,1632165365,45,30.2924,71.6712,91.29,9.86
390,santa maria,BR,40,1632165274,69,-29.6842,-53.8069,81.7,8.05
391,kirksville,US,75,1632165366,62,40.1948,-92.5833,85.95,11.5
392,phan thiet,VN,100,1632165367,88,10.9333,108.1,75.9,5.84
393,mutis,CO,58,1632165367,77,6.2262,-77.4044,82.26,8.41
394,dolores,AR,89,1632165368,68,-36.3132,-57.6792,61.3,18.41
395,sao gabriel da cachoeira,BR,40,1632165368,52,-0.1303,-67.0892,93.0,5.75
396,saint-augustin,CA,0,1632164919,27,51.226,-58.6502,58.41,4.7
397,puerto escondido,MX,75,1632165369,62,15.85,-97.0667,88.63,8.05
398,shambu,ET,16,1632165369,87,9.5667,37.1,52.39,2.26
399,wasilla,US,90,1632165261,72,61.5814,-149.4394,46.38,0.0
400,birao,CF,90,1632165370,91,10.2849,22.7882,73.53,4.45
401,suluq,LY,0,1632165371,31,31.6682,20.2521,85.51,8.75
402,uberaba,BR,7,1632165237,12,-19.7483,-47.9319,97.38,3.44
403,jiaonan,CN,0,1632165371,87,35.8786,119.9753,64.42,9.86
404,sambava,MG,59,1632165372,73,-14.2667,50.1667,71.47,13.69
405,bridlington,GB,100,1632165372,84,54.0831,-0.1919,55.58,6.13
406,waipawa,NZ,16,1632165373,78,-41.4122,175.5153,52.43,17.6
407,dehloran,IR,0,1632165374,14,32.6941,47.2679,88.79,6.67
408,srednekolymsk,RU,100,1632165374,80,67.45,153.6833,27.3,14.54
409,ust-nera,RU,77,1632165375,87,64.5667,143.2,26.98,5.88
410,berdigestyakh,RU,14,1632165376,92,62.0989,126.6992,30.65,0.25
411,sinnamary,GF,26,1632165376,66,5.3833,-52.95,85.53,10.8
412,jiujiang,CN,0,1632165377,78,29.7333,115.9833,69.42,4.23
413,pont-a-mousson,FR,0,1632165377,94,48.9079,6.0589,60.58,6.91
414,lompoc,US,1,1632165378,48,34.6391,-120.4579,88.11,6.91
415,hofn,IS,40,1632165378,62,64.2539,-15.2082,53.62,16.11
416,komyshany,UA,100,1632165379,56,46.6372,32.5072,55.74,5.48
417,port-cartier,CA,2,1632165379,63,50.0334,-66.8654,53.82,5.19
418,manokwari,ID,100,1632165380,81,-0.8667,134.0833,77.25,4.5
419,chute-aux-outardes,CA,90,1632165380,72,49.1168,-68.399,59.31,9.22
420,georgiyevka,KZ,0,1632165381,62,43.0369,74.7114,50.04,4.47
421,arya,PK,2,1632165381,66,33.6,73.0667,80.82,6.4
422,sola,VU,51,1632165382,74,-13.8833,167.55,77.41,22.06
423,touros,BR,29,1632165383,63,-5.1989,-35.4608,83.3,16.58
424,gelemso,ET,100,1632165384,83,8.8167,40.5167,61.16,6.49
425,jambi,ID,65,1632165385,92,-1.6,103.6167,75.04,2.42
426,staroutkinsk,RU,8,1632165385,94,57.2302,59.3348,32.29,3.06
427,yarmouth,US,1,1632165386,56,41.7057,-70.2286,73.62,8.05
428,bombo,ID,100,1632165386,82,-8.6131,119.0131,77.11,3.6
429,fukue,JP,7,1632164833,83,32.6881,128.8419,77.11,14.18
430,flin flon,CA,75,1632165387,50,54.7682,-101.865,55.24,12.66
431,garwolin,PL,100,1632165387,82,51.8975,21.6147,44.26,9.01
432,tchibanga,GA,14,1632165388,80,-2.85,11.0333,73.29,5.39
433,charters towers,AU,100,1632165388,90,-20.1,146.2667,61.34,7.02
434,oriximina,BR,94,1632165389,52,-1.7656,-55.8661,89.64,0.76
435,northam,GB,90,1632165389,89,51.0333,-4.2167,56.21,7.99
436,alenquer,BR,100,1632165390,45,-1.9417,-54.7383,93.54,1.72
437,hurghada,EG,0,1632165390,33,27.2574,33.8129,88.81,13.18
438,majene,ID,100,1632165390,91,-3.5403,118.9707,75.52,10.38
439,yerbogachen,RU,100,1632165391,84,61.2767,108.0108,47.84,10.69
440,kjopsvik,NO,2,1632165392,68,68.097,16.3742,46.27,10.25
441,port macquarie,AU,85,1632165392,70,-31.4333,152.9167,51.76,18.01
442,souillac,MU,75,1632165393,68,-20.5167,57.5167,70.18,16.11
443,sur,OM,2,1632165393,68,22.5667,59.5289,84.74,14.25
444,saint-ambroise,CA,44,1632165393,37,48.5501,-71.3324,73.89,8.37
445,ayan,RU,34,1632165394,61,56.45,138.1667,42.8,13.73
446,menongue,AO,78,1632165394,34,-14.6585,17.691,78.33,9.19
447,bathsheba,BB,40,1632165395,66,13.2167,-59.5167,88.41,13.8
448,salalah,OM,75,1632165395,89,17.0151,54.0924,80.69,8.05
449,wamba,NG,22,1632165396,86,8.9333,8.6,74.62,1.77
450,akyab,MM,88,1632165396,85,20.15,92.9,80.11,2.17
451,tommot,RU,1,1632165396,94,58.9564,126.2925,31.91,2.17
452,la reforma,MX,100,1632165397,60,25.0833,-108.05,89.89,9.13
453,boyolangu,ID,100,1632165397,93,-8.1181,111.8935,73.62,1.68
454,grande riviere du nord,HT,75,1632165398,62,19.5833,-72.1833,84.25,11.5
455,gorontalo,ID,100,1632165398,95,0.5412,123.0595,74.23,1.23
456,carballo,ES,0,1632165399,82,43.213,-8.691,62.29,8.97
457,makakilo city,US,40,1632165400,58,21.3469,-158.0858,82.72,10.36
458,hobyo,SO,81,1632165400,86,5.3505,48.5268,77.07,22.3
459,sosnogorsk,RU,100,1632165401,70,63.6023,53.8817,38.79,4.56
460,port blair,IN,100,1632165401,82,11.6667,92.75,81.1,10.29
461,puerto carreno,CO,75,1632165401,56,6.189,-67.4859,88.61,2.68
462,mehamn,NO,0,1632165402,65,71.0357,27.8492,44.78,8.05
463,coruripe,BR,90,1632165293,66,-10.1256,-36.1756,78.76,9.86
464,kamloops,CA,75,1632165350,63,50.6665,-120.3192,58.19,3.44
465,marovoay,MG,64,1632165402,52,-16.1,46.6333,75.34,8.08
466,pangody,RU,100,1632165403,95,65.85,74.4859,34.47,15.97
467,keti bandar,PK,29,1632165403,83,24.1447,67.4497,82.89,18.34
468,yekaterinovka,RU,100,1632165404,84,52.0508,44.3451,45.28,17.31
469,turiacu,BR,70,1632165404,60,-1.6633,-45.3717,84.97,8.48
470,mugan,CN,0,1632165405,35,35.9404,101.3842,46.42,3.85
471,porto novo,BJ,100,1632165405,83,6.4965,2.6036,78.62,5.82
472,campbell river,CA,90,1632165353,100,50.0163,-125.2446,56.12,9.22
473,port hardy,CA,90,1632165406,94,50.6996,-127.4199,53.78,13.8
474,comodoro rivadavia,AR,0,1632165183,38,-45.8667,-67.5,58.86,13.8
475,gamba,GA,91,1632165406,80,-2.65,10.0,75.02,5.39
476,kaiyuan,CN,97,1632165407,95,23.6977,103.3037,64.58,2.06
477,yuzhno-sukhokumsk,RU,98,1632165407,46,44.6581,45.6436,71.01,5.21
478,buraydah,SA,0,1632165166,16,26.326,43.975,88.25,10.36
479,sayyan,YE,49,1632165408,26,15.1718,44.3244,68.11,1.95
480,ketchikan,US,90,1632165403,93,55.3422,-131.6461,52.27,18.41
481,luga,RU,100,1632165409,79,58.7372,29.8453,40.8,11.61
482,williams lake,CA,75,1632165350,66,52.1415,-122.1445,53.17,9.22
483,marawi,PH,79,1632165410,94,7.9986,124.2928,68.63,2.57
484,sao joao da barra,BR,5,1632165410,80,-21.6403,-41.0511,78.89,17.02
485,steamboat springs,US,90,1632165411,75,40.485,-106.8317,53.53,0.0
486,lujiang,CN,0,1632165411,96,31.2581,117.2817,66.25,7.34
487,isiro,CD,47,1632165412,89,2.7739,27.616,68.99,1.88
488,cap malheureux,MU,33,1632165412,72,-19.9842,57.6142,70.29,21.34
489,hvide sande,DK,90,1632165413,61,56.0045,8.1294,52.09,3.6
490,ola,RU,87,1632165413,82,59.5833,151.2833,43.81,10.92
491,chupa,RU,7,1632165414,88,66.27,33.0549,35.89,4.29
492,deputatskiy,RU,51,1632165415,93,69.3,139.9,18.88,3.09
493,ukiah,US,1,1632165415,33,39.1502,-123.2078,75.09,3.44
494,kawalu,ID,99,1632165416,95,-7.3817,108.2082,69.17,1.36
495,helena,US,75,1632165241,47,46.5927,-112.0361,52.79,17.27
496,caravelas,BR,9,1632165417,63,-17.7125,-39.2481,78.96,7.4
497,yinchuan,CN,0,1632165417,23,38.4681,106.2731,68.25,7.96
498,iberia,US,1,1632165418,61,29.9502,-91.7507,85.96,6.91
499,thinadhoo,MV,89,1632165418,74,0.5333,72.9333,83.12,9.46
500,xochistlahuaca,MX,7,1632165419,58,16.7833,-98.25,88.41,5.66
501,hirara,JP,13,1632165419,79,24.8,125.2833,82.89,5.39
502,vao,NC,86,1632165420,61,-22.6667,167.4833,70.07,18.63
503,zhezkazgan,KZ,0,1632165420,40,47.8043,67.7144,47.95,9.19
504,castanos,MX,1,1632165421,20,26.7833,-101.4167,92.79,8.05
505,champerico,GT,100,1632165421,74,14.3,-91.9167,95.54,8.23
506,taldan,RU,0,1632165421,95,53.6667,124.8,43.23,2.3
507,inta,RU,100,1632165422,86,66.0317,60.1659,36.05,11.63
508,heide,DE,100,1632165423,69,54.2,9.1,51.89,3.91
509,moron,AR,95,1632165423,63,-34.6534,-58.6198,66.09,12.82
510,taitung,TW,36,1632165424,81,22.7583,121.1444,80.11,3.27
511,goderich,CA,100,1632165126,57,43.7501,-81.7165,79.12,8.05
512,kasongo-lunda,CD,25,1632165425,44,-6.4667,16.8167,83.5,1.39
513,rottingdean,GB,20,1632165425,88,50.8098,-0.0594,62.89,2.3
514,constantine,DZ,40,1632165426,77,36.365,6.6147,69.21,3.44
515,zyryanka,RU,100,1632164914,95,65.75,150.85,27.39,16.28
516,villa alemana,CL,0,1632165426,44,-33.0422,-71.3733,71.91,14.97
517,sovetskiy,RU,75,1632165427,87,61.3614,63.5842,32.36,4.03
518,victor harbor,AU,75,1632165427,56,-35.5667,138.6167,44.69,18.52
519,ikwiriri,TZ,0,1632165428,86,-7.9562,38.9716,70.72,3.94
520,chara,RU,19,1632165429,71,56.9064,118.2631,45.19,0.65
521,indian harbour beach,US,90,1632165429,82,28.1489,-80.5884,93.27,13.8
522,kalmunai,LK,78,1632165430,87,7.4167,81.8167,79.59,10.76
523,tra vinh,VN,100,1632165430,92,9.9347,106.3453,75.99,1.72
524,warrnambool,AU,100,1632165431,69,-38.3833,142.4833,47.14,20.89
525,norman wells,CA,20,1632165431,71,65.282,-126.8329,48.24,12.66
526,natal,BR,40,1632165342,65,-5.795,-35.2094,83.05,19.57
527,sumbawanga,TZ,15,1632165432,43,-7.9667,31.6167,67.87,1.9
528,oussouye,SN,38,1632165432,74,12.485,-16.5469,84.52,4.59
529,coffs harbour,AU,4,1632165433,72,-30.3,153.1333,58.96,13.8
530,capao bonito,BR,4,1632165433,23,-24.0058,-48.3494,94.48,7.02
531,celestun,MX,6,1632165434,59,20.8667,-90.4,89.56,9.15
532,kholmogory,RU,7,1632165434,86,64.2229,41.656,39.31,3.31
533,grand gaube,MU,23,1632165435,72,-20.0064,57.6608,70.2,21.65
534,vestmanna,FO,75,1632165435,82,62.1564,-7.1664,50.92,25.32
535,inhambane,MZ,20,1632165436,68,-23.865,35.3833,71.58,13.8
536,luang prabang,LA,16,1632165436,94,19.8856,102.1347,72.46,0.76
537,sri aman,MY,100,1632165437,100,1.2376,111.4621,73.45,0.0
538,batticaloa,LK,91,1632165437,84,7.7102,81.6924,80.02,6.42
539,sibolga,ID,100,1632165438,83,1.7427,98.7792,75.45,3.62
540,nantucket,US,20,1632165392,60,41.2835,-70.0995,71.74,10.36
541,santarem,BR,0,1632165439,52,-2.4431,-54.7083,93.33,14.97
542,dulce nombre de culmi,HN,77,1632165439,43,15.1,-85.5333,97.03,4.74
543,quime,BO,100,1632165440,74,-16.9833,-67.2167,56.88,8.1
544,nsanje,MW,0,1632165440,35,-16.92,35.262,73.54,5.53
545,mao,ES,75,1632165441,73,39.8885,4.2658,72.16,8.05
546,brae,GB,100,1632165441,82,60.3964,-1.353,53.51,21.25
547,novikovo,RU,100,1632165442,75,51.1537,37.8879,52.54,5.14
548,sitka,US,90,1632164921,71,57.0531,-135.33,55.29,25.32
549,omsukchan,RU,100,1632165443,98,62.5333,155.8,38.86,4.36
550,raudeberg,NO,100,1632165443,76,61.9875,5.1352,56.98,25.03
551,fort myers beach,US,1,1632165283,49,26.452,-81.9481,95.09,3.44
552,tefe,BR,40,1632165444,55,-3.3542,-64.7114,95.11,1.81
553,mezen,RU,72,1632165444,84,65.8522,44.24,35.11,0.89
554,todos santos,MX,79,1632165444,74,23.45,-110.2167,81.19,8.52
555,limon,CR,75,1632165445,94,10.0,-83.0333,78.69,3.44
556,naze,JP,0,1632165445,81,28.3667,129.4833,73.92,2.62
557,rayong,TH,100,1632165446,93,12.8333,101.4333,75.88,3.0
558,potosi,BO,94,1632165446,47,-19.5836,-65.7531,54.95,26.22
559,dauriya,RU,99,1632165447,87,49.9333,116.8667,49.08,6.33
560,senanga,ZM,10,1632165447,15,-16.1167,23.2667,78.75,7.96
